X,Y,OBJECTID,Plant_Code,Plant_Name,Utility_ID,Utility_Name,sector_name,Street_Address,City,County,State,Zip,PrimSource,source_desc,tech_desc,Install_MW,Total_MW,Bat_MW,Bio_MW,Coal_MW,Geo_MW,Hydro_MW,HydroPS_MW,NG_MW,Nuclear_MW,Crude_MW,Solar_MW,Wind_MW,Other_MW,Source,Period,Longitude,Latitude
-17866469.0268,7428080.3592,35853,1,Sand Point,63560,"Sand Point Generating, LLC",Electric Utility,100 Power Plant Way,Sand Point,Aleutians East,Alaska,99661,petroleum,"Petroleum = 1.3 MW, Wind = 0.4 MW",Petroleum Liquids; Onshore Wind Turbine;,3.7,1.7,,,,,,,,,1.3,,0.4,,"EIA-860, EIA-860M and EIA-923",202406,-160.497222,55.339722
-9797261.7806,3633645.2722,35855,3,Barry,195,Alabama Power Co,Electric Utility,North Highway 43,Bucks,Mobile,Alabama,36512,natural gas,"Coal = 1118.5 MW, Natural Gas = 1981.2 MW",Conventional Steam Coal; Natural Gas Fired Combined Cycle; Natural Gas Steam Turbine,3343.5,3099.7,,,1118.5,,,,1981.2,,,,,,"EIA-860, EIA-860M and EIA-923",202406,-88.0103,31.0069
-11841610.8331,3731442.1061,35857,9,Copper,5701,El Paso Electric Co,Electric Utility,651 Hawkins Blvd.,El Paso,El Paso,Texas,79915,natural gas,Natural Gas = 63 MW,Natural Gas Fired Combustion Turbine,86.9,63,,,,,,,63,,,,,,"EIA-860, EIA-860M and EIA-923",202406,-106.375,31.7569
-9771747.3533,3842554.853,35858,10,Greene County,195,Alabama Power Co,Electric Utility,Highway 43,Demopolis,Greene,Alabama,36732,natural gas,Natural Gas = 1256.1 MW,Natural Gas Fired Combustion Turbine; Natural Gas Steam Turbine;,1288.4,1256.1,,,,,,,1256.1,,,,,,"EIA-860, EIA-860M and EIA-923",202406,-87.7811,32.6017
-9624466.7689,3927763.9322,35870,26,E C Gaston,195,Alabama Power Co,Electric Utility,31972 Highway 25 North,Wilsonville,Shelby,Alabama,35186,natural gas,"Coal = 832 MW, Natural Gas = 1020 MW, Petroleum = 16 MW",Conventional Steam Coal; Natural Gas Steam Turbine; Petroleum Liquids,2034,1868,,,832,,,,1020,,16,,,,"EIA-860, EIA-860M and EIA-923",202406,-86.458056,33.244211
-10510541.4178,5473198.5499,35871,30,Madelia,29305,City of Madelia - (MN),Electric Utility,24 Abbot Ave. S.W.,City of Madelia,Watonwan,Minnesota,56062,petroleum,Petroleum = 10.6 MW,Petroleum Liquids,11.8,10.6,,,,,,,,,10.6,,,,"EIA-860, EIA-860M and EIA-923",202406,-94.4178,44.0501
-9779261.4189,4129132.411,35875,47,Colbert,18642,Tennessee Valley Authority,Electric Utility,900 Steam Plant Rd.,Tuscumbia,Colbert,Alabama,35674,natural gas,Natural Gas = 1026.2 MW,Natural Gas Fired Combustion Turbine,1169.6,1026.2,,,,,,,1026.2,,,,,,"EIA-860, EIA-860M and EIA-923",202406,-87.8486,34.7439
-9362158.4188,4562953.1086,35879,54,J K Smith,5580,"East Kentucky Power Coop, Inc",Electric Utility,12145 Irvine Road,Winchester,Clark,Kentucky,40391,natural gas,Natural Gas = 784 MW,Natural Gas Fired Combustion Turbine,1055,784,,,,,,,784,,,,,,"EIA-860, EIA-860M and EIA-923",202406,-84.1017,37.8833
-9786179.5913,3696291.2082,35881,56,Lowman Energy Center,189,PowerSouth Energy Cooperative,Electric Utility,Carson Road,Leroy,Washington,Alabama,36548,natural gas,Natural Gas = 658.9 MW,Natural Gas Fired Combined Cycle,732.7,658.9,,,,,,,658.9,,,,,,"EIA-860, EIA-860M and EIA-923",202406,-87.910747,31.488019
-10948073.9935,4990943.0788,35882,59,Platte,40606,City of Grand Island - (NE),Electric Utility,1035 W Wildwood Drive,Grand Island,Hall,Nebraska,68801,coal,Coal = 100 MW,Conventional Steam Coal,109.8,100,,,100,,,,,,,,,,"EIA-860, EIA-860M and EIA-923",202406,-98.348222,40.854765
-10944090.4255,4950715.5632,35883,60,Whelan Energy Center,8245,City of Hastings - (NE),Electric Utility,4520 East South St.,Hastings,Adams,Nebraska,68902,coal,Coal = 296 MW,Conventional Steam Coal,324.3,296,,,296,,,,,,,,,,"EIA-860, EIA-860M and EIA-923",202406,-98.312437,40.580872
-14963276.5218,8032871.0819,35885,63,Gold Creek,213,Alaska Electric Light & Power Co.,Electric Utility,700 Capital Ave.,Juneau,Juneau,Alaska,99801,petroleum,"Hydroelectric = 1.6 MW, Petroleum = 8.1 MW",Conventional Hydroelectric; Petroleum Liquids;,9.7,9.7,,,,,1.6,,,,8.1,,,,"EIA-860, EIA-860M and EIA-923",202406,-134.4174,58.3107
-14971948.3101,8041967.5771,35886,64,Lemon Creek,213,Alaska Electric Light & Power Co.,Electric Utility,5601 Tonsgard Ct.,Juneau,Juneau,Alaska,99801,petroleum,Petroleum = 57.5 MW,Petroleum Liquids,61.7,57.5,,,,,,,,,57.5,,,,"EIA-860, EIA-860M and EIA-923",202406,-134.4953,58.3536
-15062985.3897,8279277.0328,35888,66,Skagway,219,Alaska Power and Telephone Co,Electric Utility,110 Spring St,Skagway,Skagway Hoonah Angoon,Alaska,99840,petroleum,"Hydroelectric = 1 MW, Petroleum = 4.1 MW",Conventional Hydroelectric; Petroleum Liquids;,4.7,5.1,,,,,1,,,,4.1,,,,"EIA-860, EIA-860M and EIA-923",202406,-135.3131,59.4545
-15077805.1308,8231556.3091,35889,69,Haines,219,Alaska Power and Telephone Co,Electric Utility,241 Dalton St.,Haines,Haines,Alaska,99927,petroleum,Petroleum = 9.6 MW,Petroleum Liquids,9.6,9.6,,,,,,,,,9.6,,,,"EIA-860, EIA-860M and EIA-923",202406,-135.446228,59.235931
-16683017.9392,8676999.941,35893,75,Hank Nikkels Plant 1,3522,Chugach Electric Assn Inc,Electric Utility,821 E. 1st Ave,Anchorage,Anchorage,Alaska,99501,natural gas,"Natural Gas = 60.4 MW, Petroleum = 2 MW",Natural Gas Fired Combustion Turbine; Petroleum Liquids;,77.9,62.4,,,,,,,60.4,,2,,,,"EIA-860, EIA-860M and EIA-923",202406,-149.8661,61.2221
-16445791.9855,9568380.1491,35896,79,Aurora Energy LLC Chena,986,Aurora Energy LLC,IPP CHP,1206 First Ave.,Fairbanks,Fairbanks North Star,Alaska,99701,coal,Coal = 25.7 MW,Conventional Steam Coal,27.5,25.7,,,25.7,,,,,,,,,,"EIA-860, EIA-860M and EIA-923",202406,-147.735063,64.847743
-14660438.5262,7431540.8454,35898,85,S W Bailey,10210,Ketchikan Public Utilities,Electric Utility,3935 Tongass Ave.,Ketchikan,Ketchikan Gateway,Alaska,99901,petroleum,Petroleum = 23 MW,Petroleum Liquids,25.9,23,,,,,,,,,23,,,,"EIA-860, EIA-860M and EIA-923",202406,-131.69696,55.357397
-18415562.6565,9479263.4957,35900,90,Snake River,13642,Nome Joint Utility Systems,Electric Utility,1226 Port Road,Nome,Nome,Alaska,99762,petroleum,"Petroleum = 16.4 MW, Wind = 1.8 MW",Petroleum Liquids; Onshore Wind Turbine;,18.4,18.2,,,,,,,,,16.4,,1.8,,"EIA-860, EIA-860M and EIA-923",202406,-165.429814,64.505331
-14800715.6675,7721594.558,35901,91,Petersburg,14856,Petersburg Borough - (AK),Electric Utility,11 S. Nordic Drive,Petersburg,Wrangell Petersburg,Alaska,99833,petroleum,"Hydroelectric = 1.8 MW, Petroleum = 10.8 MW",Conventional Hydroelectric; Petroleum Liquids;,14.7,12.6,,,,,1.8,,,,10.8,,,,"EIA-860, EIA-860M and EIA-923",202406,-132.957091,56.81104
-16635029.2199,8428944.0899,35902,92,Seward (AK),16955,City of Seward - (AK),Electric Utility,605 SeaLion Avenue,Seward,Kenai Peninsula,Alaska,99664,petroleum,Petroleum = 15.6 MW,Petroleum Liquids,15.6,15.6,,,,,,,,,15.6,,,,"EIA-860, EIA-860M and EIA-923",202406,-149.43501,60.130922
-14736411.741,7650735.6367,35904,95,Wrangell,21015,City of Wrangell - (AK),Electric Utility,1043 Case Ave,Wrangell,Wrangell Petersburg,Alaska,99929,petroleum,Petroleum = 12 MW,Petroleum Liquids,12,12,,,,,,,,,12,,,,"EIA-860, EIA-860M and EIA-923",202406,-132.379439,56.460976
-16813206.0837,8668680.287,35905,96,Beluga,3522,Chugach Electric Assn Inc,Electric Utility,Beluga Power Plant,Beluga,Kenai Peninsula,Alaska,99682,natural gas,Natural Gas = 300.4 MW,Natural Gas Fired Combustion Turbine,312.4,300.4,,,,,,,300.4,,,,,,"EIA-860, EIA-860M and EIA-923",202406,-151.0356,61.1861
-13621609.4909,5955096.4539,35906,99,Frederickson,15500,Puget Sound Energy Inc,Electric Utility,4714 192nd St East,Tacoma,Pierce,Washington,98446,natural gas,Natural Gas = 134 MW,Natural Gas Fired Combustion Turbine,177.8,134,,,,,,,134,,,,,,"EIA-860, EIA-860M and EIA-923",202406,-122.365,47.079722
-11240207.2841,4569654.7807,35909,108,Holcomb,18315,Sunflower Electric Power Corp,Electric Utility,2440 Holcomb Lane,Holcomb,Finney,Kansas,67851,coal,Coal = 358.9 MW,Conventional Steam Coal,348.7,358.9,,,358.9,,,,,,,,,,"EIA-860, EIA-860M and EIA-923",202406,-100.9725,37.9308
-17640643.5248,8189668.0347,35910,109,Dillingham,13870,"Nushagak Electric Coop, Inc",Electric Utility,557 Kenny Wren Rd.,Dillingham,Dillingham,Alaska,99576,petroleum,Petroleum = 11 MW,Petroleum Liquids,11,11,,,,,,,,,11,,,,"EIA-860, EIA-860M and EIA-923",202406,-158.468597,59.042914
-12278907.1888,4155648.8926,35911,113,Cholla,803,Arizona Public Service Co,Electric Utility,4801 Cholla Lake Road,Joseph City,Navajo,Arizona,86032,coal,Coal = 383 MW,Conventional Steam Coal,425.9,383,,,383,,,,,,,,,,"EIA-860, EIA-860M and EIA-923",202406,-110.3033,34.9394
-12195473.2305,3680128.1528,35912,114,Douglas,803,Arizona Public Service Co,Electric Utility,Sulpher Spring Rd/Lawrence Ave,Douglas,Cochise,Arizona,85607,petroleum,Petroleum = 15 MW,Petroleum Liquids,26.1,15,,,,,,,,,15,,,,"EIA-860, EIA-860M and EIA-923",202406,-109.5538,31.364122
-12458009.1176,3951518.9893,35913,116,Ocotillo,803,Arizona Public Service Co,Electric Utility,1500 East University,Tempe,Maricopa,Arizona,85281,natural gas,Natural Gas = 605 MW,Natural Gas Fired Combustion Turbine,626.2,605,,,,,,,605,,,,,,"EIA-860, EIA-860M and EIA-923",202406,-111.9122,33.4225
-12485404.8442,3954080.084,35914,117,West Phoenix,803,Arizona Public Service Co,Electric Utility,4606 West Hadley,Phoenix,Maricopa,Arizona,85043,natural gas,Natural Gas = 909 MW,Natural Gas Fired Combined Cycle; Natural Gas Fired Combustion Turbine;,1206.8,909,,,,,,,909,,,,,,"EIA-860, EIA-860M and EIA-923",202406,-112.1583,33.4417
-12389859.3253,3835949.6986,35915,118,Saguaro,803,Arizona Public Service Co,Electric Utility,Mail Post 228,Red Rock,Pinal,Arizona,85245,natural gas,Natural Gas = 179.1 MW,Natural Gas Fired Combustion Turbine,184.5,179.1,,,,,,,179.1,,,,,,"EIA-860, EIA-860M and EIA-923",202406,-111.3,32.5517
-12769525.5806,3858382.5911,35916,120,Yucca,803,Arizona Public Service Co,Electric Utility,7522 South Somerton Ave.,Yuma,Yuma,Arizona,85364,natural gas,"Natural Gas = 258.4 MW, Petroleum = 71 MW",Natural Gas Fired Combustion Turbine; Natural Gas Steam Turbine; Petroleum Liquids,417,329.4,,,,,,,258.4,,71,,,,"EIA-860, EIA-860M and EIA-923",202406,-114.7106,32.7214
-12355589.3974,3796471.1239,35917,124,Demoss Petrie,24211,Tucson Electric Power Co,Electric Utility,2501 N Flowing Wells Road,Tucson,Pima,Arizona,85705,natural gas,Natural Gas = 75 MW,Natural Gas Fired Combustion Turbine,85,75,,,,,,,75,,,,,,"EIA-860, EIA-860M and EIA-923",202406,-110.992148,32.252273
-12345854.7306,3784331.4864,35918,126,H Wilson Sundt Generating Station,24211,Tucson Electric Power Co,Electric Utility,3950 E Irvington Road,Tucson,Pima,Arizona,85714,natural gas,Natural Gas = 490 MW,Natural Gas Fired Combustion Turbine; Natural Gas Internal Combustion Engine; Natural Gas Steam Turbine,528.9,490,,,,,,,490,,,,,,"EIA-860, EIA-860M and EIA-923",202406,-110.9047,32.16
-8918164.526,3944719.6299,35919,130,Cross,17543,South Carolina Public Service Authority,Electric Utility,553 Cross Station Road,Cross,Berkeley,South Carolina,29436,coal,Coal = 2330 MW,Conventional Steam Coal,2390.1,2330,,,2330,,,,,,,,,,"EIA-860, EIA-860M and EIA-923",202406,-80.113235,33.371506
-9087319.279,3469282.6246,35920,136,Seminole (FL),21554,Seminole Electric Cooperative Inc,Electric Utility,State Highway 19,Palatka,Putnam,Florida,32708,natural gas,"Coal = 634 MW, Natural Gas = 1104 MW",Conventional Steam Coal; Natural Gas Fired Combined Cycle;,1897.8,1738,,,634,,,,1104,,,,,,"EIA-860, EIA-860M and EIA-923",202406,-81.632778,29.733056
-12491750.0552,3969351.7094,35921,141,Agua Fria,16572,Salt River Project,Electric Utility,7302 W Northern Ave,Glendale,Maricopa,Arizona,85303,natural gas,"Battery = 25 MW, Natural Gas = 544 MW, Petroleum = 181 MW,Solar = 0.2 MW",Batteries; Natural Gas Fired Combustion Turbine; Natural Gas Steam Turbine; Petroleum Liquids; Solar Photovoltaic,737.5,750.2,25,,,,,,544,,181,0.2,,,"EIA-860, EIA-860M and EIA-923",202406,-112.2153,33.5561
-12460580.5978,3942599.5959,35924,147,Kyrene,16572,Salt River Project,Electric Utility,7005 S Kyrene Rd.,Tempe,Maricopa,Arizona,85283,natural gas,Natural Gas = 525 MW,Natural Gas Fired Combined Cycle; Natural Gas Fired Combustion Turbine; Natural Gas Steam Turbine,573.7,525,,,,,,,525,,,,,,"EIA-860, EIA-860M and EIA-923",202406,-111.9353,33.3556
-13462020.7557,4527198.3171,35928,151,McClure,12745,Modesto Irrigation District,Electric Utility,639 S. McClure Rd.,Modesto,Stanislaus,California,95354,natural gas,"Natural Gas = 53.5 MW, Petroleum = 53.5 MW",Natural Gas Fired Combustion Turbine; Petroleum Liquids;,142.4,107,,,,,,,53.5,,53.5,,,,"EIA-860, EIA-860M and EIA-923",202406,-120.93139,37.62936
-12233243.9337,3771228.5445,35933,160,Apache Station,796,Arizona Electric Pwr Coop Inc,Electric Utility,3525 N US Hwy 191,Cochise,Cochise,Arizona,85606,natural gas,"Coal = 175 MW, Natural Gas = 373.5 MW",Conventional Steam Coal; Natural Gas Fired Combustion Turbine; Natural Gas Steam Turbine,660.7,548.5,,,175,,,,373.5,,,,,,"EIA-860, EIA-860M and EIA-923",202406,-109.8931,32.0603
-10607567.486,4326835.0169,35936,165,GREC,7490,Grand River Dam Authority,Electric Utility,8142 Hwy 412B,Chouteau,Mayes,Oklahoma,74337,natural gas,"Coal = 492.5 MW, Natural Gas = 480.7 MW",Conventional Steam Coal; Natural Gas Fired Combined Cycle;,1194.3,973.2,,,492.5,,,,480.7,,,,,,"EIA-860, EIA-860M and EIA-923",202406,-95.2894,36.190278
-10342126.1602,4087241.0608,35938,170,Lake Catherine,814,Entergy Arkansas LLC,Electric Utility,"Hwy. 270, PO Box 218",Jones Mill,Hot Spring,Arkansas,72105,natural gas,Natural Gas = 522 MW,Natural Gas Steam Turbine,552.5,522,,,,,,,522,,,,,,"EIA-860, EIA-860M and EIA-923",202406,-92.9049,34.4341
-10015292.1352,4260157.6118,35939,172,Osceola (AR),14216,City of Osceola - (AR),Electric Utility,100 West Semmes Ave.,Osceola,Mississippi,Arkansas,72370,petroleum,Petroleum = 1.6 MW,Petroleum Liquids,1.6,1.6,,,,,,,,,1.6,,,,"EIA-860, EIA-860M and EIA-923",202406,-89.9689,35.705381
-10039537.5203,4353837.5371,35945,193,Municipal Light,15043,City of Piggott - (AR),Electric Utility,Castleberry Street,Piggott,Clay,Arkansas,72454,petroleum,Petroleum = 7.2 MW,Petroleum Liquids,7.2,7.2,,,,,,,,,7.2,,,,"EIA-860, EIA-860M and EIA-923",202406,-90.1867,36.3858
-10442316.5962,4226895.9039,35951,201,Thomas Fitzhugh,807,Arkansas Electric Coop Corp,Electric Utility,6006 Lock and Dam Road,Ozark,Franklin,Arkansas,72949,natural gas,Natural Gas = 162 MW,Natural Gas Fired Combined Cycle,185,162,,,,,,,162,,,,,,"EIA-860, EIA-860M and EIA-923",202406,-93.804926,35.462382
-10170530.0594,4199284.3864,35952,202,Carl Bailey,807,Arkansas Electric Coop Corp,Electric Utility,535 Woodruff 816,Augusta,Woodruff,Arkansas,72006,natural gas,Natural Gas = 122 MW,Natural Gas Steam Turbine,120,122,,,,,,,122,,,,,,"EIA-860, EIA-860M and EIA-923",202406,-91.363426,35.260102
-10329524.7938,3970513.9271,35953,203,McClellan (AR),807,Arkansas Electric Coop Corp,Electric Utility,1625 Bradley Ferry Road,Camden,Ouachita,Arkansas,71701,natural gas,Natural Gas = 134 MW,Natural Gas Steam Turbine,136,134,,,,,,,134,,,,,,"EIA-860, EIA-860M and EIA-923",202406,-92.7917,33.5648
-13827027.3473,4974287.4184,35982,246,Humboldt Bay,14328,Pacific Gas & Electric Co.,Electric Utility,Buhne Pt. 1000 King Salmon Ave,Eureka,Humboldt,California,95503,natural gas,Natural Gas = 163.4 MW,Natural Gas Internal Combustion Engine,167,163.4,,,,,,,163.4,,,,,,"EIA-860, EIA-860M and EIA-923",202406,-124.2103,40.7415
-13556737.0558,4411938.3822,35990,260,Dynegy Moss Landing Power Plant Hybrid,54802,Dynegy -Moss Landing LLC,IPP Non-CHP,7301 State Highway 1,Moss Landing,Monterey,California,95039,natural gas,"Battery = 750 MW, Natural Gas = 1020 MW",Batteries; Natural Gas Fired Combined Cycle;,2148,1770,750,,,,,,1020,,,,,,"EIA-860, EIA-860M and EIA-923",202406,-121.782241,36.804837
-10714779.2876,3687662.9582,36020,298,Limestone,54888,NRG Texas Power LLC,IPP Non-CHP,"Route1, Box 85",Jewett,Limestone,Texas,75846,coal,Coal = 1660 MW,Conventional Steam Coal,1849.8,1660,,,1660,,,,,,,,,,"EIA-860, EIA-860M and EIA-923",202406,-96.2525,31.4219
-13146932.0502,3997799.6025,36024,315,AES Alamitos LLC,22148,AES Alamitos LLC,IPP Non-CHP,690 N Studebaker Road,Long Beach,Los Angeles,California,90803,natural gas,Natural Gas = 1152 MW,Natural Gas Steam Turbine,1115,1152,,,,,,,1152,,,,,,"EIA-860, EIA-860M and EIA-923",202406,-118.1009,33.7688
-13133384.4682,3981086.1359,36038,335,AES Huntington Beach LLC,23693,AES Huntington Beach LLC,IPP Non-CHP,21730 Newland Street,Huntington Beach,Orange,California,92646,natural gas,Natural Gas = 225.8 MW,Natural Gas Steam Turbine,218,225.8,,,,,,,225.8,,,,,,"EIA-860, EIA-860M and EIA-923",202406,-117.9792,33.6439
-13160724.5351,3997170.2325,36044,341,Long Beach Generation LLC,11181,Long Beach Generation LLC,IPP Non-CHP,2665 Pier S Lane,Long Beach,Los Angeles,California,90802,natural gas,Natural Gas = 260 MW,Natural Gas Fired Combustion Turbine,252,260,,,,,,,260,,,,,,"EIA-860, EIA-860M and EIA-923",202406,-118.2248,33.7641
-13265821.2664,4046163.651,36047,350,Ormond Beach,63843,"Ormond Beach Power, LLC",IPP Non-CHP,6635 S. Edison Drive,Oxnard,Ventura,California,93033,natural gas,Natural Gas = 1491 MW,Natural Gas Steam Turbine,1612,1491,,,,,,,1491,,,,,,"EIA-860, EIA-860M and EIA-923",202406,-119.1689,34.1292
-13051297.4757,4039791.0633,36051,358,Mountainview Generating Station,17609,Southern California Edison Co,Electric Utility,2492 West San Bernardino Ave.,Redlands,San Bernardino,California,92374,natural gas,Natural Gas = 1018 MW,Natural Gas Fired Combined Cycle,1036.8,1018,,,,,,,1018,,,,,,"EIA-860, EIA-860M and EIA-923",202406,-117.2418,34.0818
-13166668.9959,4049714.4896,36057,377,Grayson,7294,City of Glendale - (CA),Electric Utility,800 Air Way,Glendale,Los Angeles,California,91201,natural gas,Natural Gas = 48 MW,Natural Gas Fired Combustion Turbine,57.4,48,,,,,,,48,,,,,,"EIA-860, EIA-860M and EIA-923",202406,-118.2782,34.1556
-12861853.9663,3869081.5698,36066,389,El Centro Hybrid,9216,Imperial Irrigation District,Electric Utility,485 E. Villa Avenue,El Centro,Imperial,California,92243,natural gas,"Battery = 30 MW, Natural Gas = 293.1 MW",Batteries; Natural Gas Fired Combined Cycle; Natural Gas Steam Turbine,388.3,323.1,30,,,,,,293.1,,,,,,"EIA-860, EIA-860M and EIA-923",202406,-115.54,32.802222
-13165266.3704,3998040.647,36075,399,Harbor,11208,Los Angeles Department of Water & Power,Electric Utility,161 N. Island Ave.,Wilmington,Los Angeles,California,90744,natural gas,Natural Gas = 422 MW,Natural Gas Fired Combined Cycle; Natural Gas Fired Combustion Turbine;,548.1,422,,,,,,,422,,,,,,"EIA-860, EIA-860M and EIA-923",202406,-118.2656,33.7706
-13146735.0147,3997256.0659,36076,400,Haynes,11208,Los Angeles Department of Water & Power,Electric Utility,6801 E. 2nd St.,Long Beach,Los Angeles,California,90803,natural gas,Natural Gas = 1599.2 MW,Natural Gas Fired Combined Cycle; Natural Gas Fired Combustion Turbine; Natural Gas Steam Turbine,1739.1,1599.2,,,,,,,1599.2,,,,,,"EIA-860, EIA-860M and EIA-923",202406,-118.09913,33.764741
-13183305.4712,4017816.993,36080,404,Scattergood,11208,Los Angeles Department of Water & Power,Electric Utility,12700 Vista Del Mar,Playa del Rey,Los Angeles,California,90293,natural gas,Natural Gas = 778.3 MW,Natural Gas Fired Combined Cycle; Natural Gas Fired Combustion Turbine; Natural Gas Steam Turbine,876,778.3,,,,,,,778.3,,,,,,"EIA-860, EIA-860M and EIA-923",202406,-118.427648,33.918151
-15918683.8439,9182998.0581,36081,406,Tok,219,Alaska Power and Telephone Co,Electric Utility,Milepost 1314 AK Hwy,Tok,Southeast Fairbanks,Alaska,99780,petroleum,Petroleum = 7.9 MW,Petroleum Liquids,7.8,7.9,,,,,,,,,7.9,,,,"EIA-860, EIA-860M and EIA-923",202406,-142.99997,63.33552
-13179262.236,4061745.9624,36083,408,Valley (CA),11208,Los Angeles Department of Water & Power,Electric Utility,11801 Sheldon St.,Sun Valley,Los Angeles,California,91352,natural gas,Natural Gas = 563 MW,Natural Gas Fired Combined Cycle; Natural Gas Fired Combustion Turbine;,690.5,563,,,,,,,563,,,,,,"EIA-860, EIA-860M and EIA-923",202406,-118.391327,34.244991
-14822044.3706,7454980.2438,36094,421,Craig (AK),219,Alaska Power and Telephone Co,Electric Utility,401 7th Street,Craig,Prince of Wales Ketchikan,Alaska,99921,petroleum,Petroleum = 4.6 MW,Petroleum Liquids,4.6,4.6,,,,,,,,,4.6,,,,"EIA-860, EIA-860M and EIA-923",202406,-133.14869,55.47691
-13152331.0455,4045733.3217,36095,422,Glenarm,14534,City of Pasadena - (CA),Electric Utility,43 East State Street,Pasadena,Los Angeles,California,91105,natural gas,Natural Gas = 222.4 MW,Natural Gas Fired Combined Cycle; Natural Gas Fired Combustion Turbine;,265.6,222.4,,,,,,,222.4,,,,,,"EIA-860, EIA-860M and EIA-923",202406,-118.1494,34.126
-14785614.5106,7401742.2264,36096,423,Hydaburg,219,Alaska Power and Telephone Co,Electric Utility,105 Hyda Street,Prince of Wales,Prince of Wales Ketchikan,Alaska,99922,petroleum,Petroleum = 1 MW,Petroleum Liquids,1,1,,,,,,,,,1,,,,"EIA-860, EIA-860M and EIA-923",202406,-132.821435,55.204937
-11645621.7376,4617170.3895,36125,460,Pueblo,56146,"Black Hills Colorado Electric, LLC",Electric Utility,105 S. Victoria,Pueblo,Pueblo,Colorado,81003,petroleum,Petroleum = 8 MW,Petroleum Liquids,8,8,,,,,,,,,8,,,,"EIA-860, EIA-860M and EIA-923",202406,-104.6144,38.2667
-11788144.0817,4503336.1458,36126,464,Alamosa,15466,Public Service Co of Colorado,Electric Utility,8073 County Road 8,Alamosa,Alamosa,Colorado,81101,natural gas,Natural Gas = 27 MW,Natural Gas Fired Combustion Turbine,53.2,27,,,,,,,27,,,,,,"EIA-860, EIA-860M and EIA-923",202406,-105.8947,37.4594
-11684600.0347,4837975.4043,36129,469,Cherokee,15466,Public Service Co of Colorado,Electric Utility,6198 Franklin St,Denver,Adams,Colorado,80216,natural gas,Natural Gas = 886 MW,Natural Gas Fired Combined Cycle; Natural Gas Steam Turbine;,1006.4,886,,,,,,,886,,,,,,"EIA-860, EIA-860M and EIA-923",202406,-104.964548,39.807275
-11641202.3539,4608865.2175,36130,470,Comanche (CO),15466,Public Service Co of Colorado,Electric Utility,2005 Lime Rd.,Pueblo,Pueblo,Colorado,81006,coal,Coal = 1085 MW,Conventional Steam Coal,1252.8,1085,,,1085,,,,,,,,,,"EIA-860, EIA-860M and EIA-923",202406,-104.5747,38.2081
-12104291.4356,4741228.5777,36131,471,Fruita,15466,Public Service Co of Colorado,Electric Utility,917 Colorado State Highway 340,Grand Junction,Mesa,Colorado,81521,natural gas,Natural Gas = 14 MW,Natural Gas Fired Combustion Turbine,26.6,14,,,,,,,14,,,,,,"EIA-860, EIA-860M and EIA-923",202406,-108.7347,39.1364
-11711033.0704,4868776.3711,36135,477,Valmont,15466,Public Service Co of Colorado,Electric Utility,1800 N. 63rd St.,Boulder,Boulder,Colorado,80302,natural gas,Natural Gas = 43 MW,Natural Gas Fired Combustion Turbine,59.3,43,,,,,,,43,,,,,,"EIA-860, EIA-860M and EIA-923",202406,-105.202,40.0195
-11669993.2477,4696555.7884,36144,492,South Plant,3989,City of Colorado Springs - (CO),Electric Utility,700 S Conejos St,Colorado Springs,El Paso,Colorado,80903,natural gas,Natural Gas = 150 MW,Natural Gas Fired Combustion Turbine,245.1,150,,,,,,,150,,,,,,"EIA-860, EIA-860M and EIA-923",202406,-104.833333,38.824444
-11668168.8326,4704695.7774,36145,493,George Birdsall,3989,City of Colorado Springs - (CO),Electric Utility,213 Nichols Blvd.,Colorado Springs,El Paso,Colorado,80907,natural gas,Natural Gas = 55 MW,Natural Gas Steam Turbine,61.1,55,,,,,,,55,,,,,,"EIA-860, EIA-860M and EIA-923",202406,-104.816944,38.881389
-11362787.7433,4584048.6592,36148,502,Holly,8751,Town of Holly - (CO),Electric Utility,Tony Garcia Drive PO Box 458,Holly,Prowers,Colorado,81047,petroleum,Petroleum = 2.7 MW,Petroleum Liquids,2.9,2.7,,,,,,,,,2.7,,,,"EIA-860, EIA-860M and EIA-923",202406,-102.073659,38.032717
-11385701.8586,5005043.1645,36149,504,Julesburg,9928,City of Julesburg - (CO),Electric Utility,222 East First St,Julesburg,Sedgwick,Colorado,80737,petroleum,Petroleum = 2.2 MW,Petroleum Liquids,2.8,2.2,,,,,,,,,2.2,,,,"EIA-860, EIA-860M and EIA-923",202406,-102.2795,40.9505
-11489941.4298,4588569.7891,36151,507,Las Animas,10730,City of Las Animas - (CO),Electric Utility,733 Moore Ave,Las Animas,Bent,Colorado,81054,petroleum,Petroleum = 5.1 MW,Petroleum Liquids,5.6,5.1,,,,,,,,,5.1,,,,"EIA-860, EIA-860M and EIA-923",202406,-103.2159,38.0647
-11631494.4037,4464083.6008,36154,511,Trinidad (CO),19204,City of Trinidad - (CO),Electric Utility,1925 E Main St,Trinidad,Las Animas,Colorado,81082,petroleum,"Natural Gas = 3.8 MW, Petroleum = 5.4 MW",Natural Gas Internal Combustion Engine; Petroleum Liquids;,9.2,9.2,,,,,,,3.8,,5.4,,,,"EIA-860, EIA-860M and EIA-923",202406,-104.487492,37.178979
-11931779.6207,4936761.3166,36165,525,Hayden,15466,Public Service Co of Colorado,Electric Utility,13125 U.S. Highway 40,Hayden,Routt,Colorado,81639,coal,Coal = 441 MW,Conventional Steam Coal,465.4,441,,,441,,,,,,,,,,"EIA-860, EIA-860M and EIA-923",202406,-107.185,40.4856
-9626514.2683,3684839.6994,36167,533,McWilliams,189,PowerSouth Energy Cooperative,Electric Utility,28570 US 29 North,Gantt,Covington,Alabama,36038,natural gas,Natural Gas = 664 MW,Natural Gas Fired Combined Cycle,654,664,,,,,,,664,,,,,,"EIA-860, EIA-860M and EIA-923",202406,-86.476449,31.400255
-13513444.3492,4672049.6397,36169,535,McClellan (CA),16534,Sacramento Municipal Util Dist,Electric Utility,Watt Ave,Sacramento,Sacramento,California,95652,natural gas,Natural Gas = 77 MW,Natural Gas Fired Combustion Turbine,77,77,,,,,,,77,,,,,,"EIA-860, EIA-860M and EIA-923",202406,-121.393336,38.652731
-8103413.2767,5055581.5509,36172,540,Branford,22379,Connecticut Jet Power LLC,IPP Non-CHP,Route 1,Branford,New Haven,Connecticut,6450,petroleum,Petroleum = 17.4 MW,Petroleum Liquids,21.8,17.4,,,,,,,,,17.4,,,,"EIA-860, EIA-860M and EIA-923",202406,-72.7942,41.2925
-8192992.0709,5016605.3422,36174,542,Cos Cob,22379,Connecticut Jet Power LLC,IPP Non-CHP,Sound Shore Drive,Greenwich,Fairfield,Connecticut,6430,petroleum,Petroleum = 95.6 MW,Petroleum Liquids,115,95.6,,,,,,,,,95.6,,,,"EIA-860, EIA-860M and EIA-923",202406,-73.5989,41.0289
-8138453.9807,5043336.097,36175,544,Devon Station,22350,Devon Power LLC,IPP Non-CHP,734 Naugatuck Avenue,Milford,New Haven,Connecticut,6460,petroleum,Petroleum = 132.4 MW,Petroleum Liquids,222.6,132.4,,,,,,,,,132.4,,,,"EIA-860, EIA-860M and EIA-923",202406,-73.108976,41.209797
-8026346.7932,5075692.8661,36176,546,Montville Station,22380,NRG Montville Operations Inc,IPP Non-CHP,74 Lathrop Road,Uncasville,New London,Connecticut,6382,petroleum,"Natural Gas = 81 MW, Petroleum = 415.4 MW",Natural Gas Steam Turbine; Petroleum Liquids;,495.3,496.4,,,,,,,81,,415.4,,,,"EIA-860, EIA-860M and EIA-923",202406,-72.1019,41.4281
-13148062.9449,6210684.183,36178,550,Kettle Falls Generating Station,20169,Avista Corp,Electric Utility,1151 Hyw. 395 N.,Kettle Falls,Stevens,Washington,99141,biomass,"Biomass = 50 MW, Natural Gas = 6.2 MW",Wood/Wood Waste Biomass; Natural Gas Fired Combustion Turbine;,57.9,56.2,,50,,,,,6.2,,,,,,"EIA-860, EIA-860M and EIA-923",202406,-118.111059,48.620336
-8019659.7201,5094615.1585,36183,557,Tunnel,54895,FirstLight Power Resources Services LLC,IPP Non-CHP,72 Roosevelt Drive,Preston,New London,Connecticut,6365,petroleum,"Hydroelectric = 1.6 MW, Petroleum = 16.5 MW",Conventional Hydroelectric; Petroleum Liquids;,20.5,18.1,,,,,1.6,,,,16.5,,,,"EIA-860, EIA-860M and EIA-923",202406,-72.041829,41.555425
-8139265.6111,5130909.4986,36186,561,Franklin Drive,22379,Connecticut Jet Power LLC,IPP Non-CHP,Franklin Drive,Torrington,Litchfield,Connecticut,6790,petroleum,Petroleum = 16.1 MW,Petroleum Liquids,21.8,16.1,,,,,,,,,16.1,,,,"EIA-860, EIA-860M and EIA-923",202406,-73.116267,41.798943
-8079465.6712,5094543.605,36187,562,Middletown,12490,Middletown Power LLC,IPP Non-CHP,1866 River Road,Middletown,Middlesex,Connecticut,6457,petroleum,"Natural Gas = 353 MW, Petroleum = 417.2 MW",Natural Gas Steam Turbine; Petroleum Liquids;,786.4,770.2,,,,,,,353,,417.2,,,,"EIA-860, EIA-860M and EIA-923",202406,-72.579075,41.554944
-9035558.1648,3309905.3294,36188,564,Stanton Energy Center,14610,Orlando Utilities Comm,Electric Utility,5100 S. Alafaya Trail,Orlando,Orange,Florida,32831,coal,"Coal = 922.7 MW, Natural Gas = 292 MW",Conventional Steam Coal; Natural Gas Fired Combined Cycle;,1262,1214.7,,,922.7,,,,292,,,,,,"EIA-860, EIA-860M and EIA-923",202406,-81.1678,28.4822
-8139779.7959,5127500.4356,36189,565,Torrington Terminal,22379,Connecticut Jet Power LLC,IPP Non-CHP,South Main St,Torrington,Litchfield,Connecticut,6790,petroleum,Petroleum = 17.4 MW,Petroleum Liquids,21.8,17.4,,,,,,,,,17.4,,,,"EIA-860, EIA-860M and EIA-923",202406,-73.120886,41.776109
-8146850.142,5037537.7842,36191,568,Bridgeport Station,65448,"Generation Bridge II Connecticut, LLC",IPP Non-CHP,2 Atlantic Street,Bridgeport,Fairfield,Connecticut,6604,natural gas,Natural Gas = 482.8 MW,Natural Gas Fired Combined Cycle,576.3,482.8,,,,,,,482.8,,,,,,"EIA-860, EIA-860M and EIA-923",202406,-73.1844,41.1706
-8149483.5159,5541851.886,36197,589,J C McNeil,2548,City of Burlington Electric - (VT),Electric Utility,111 Intervale Road,Burlington,Chittenden,Vermont,5401,biomass,Biomass = 52 MW,Wood/Wood Waste Biomass,59.5,52,,52,,,,,,,,,,,"EIA-860, EIA-860M and EIA-923",202406,-73.208056,44.4917
-8408751.508,4826812.7884,36198,591,Christiana,56609,Calpine Mid-Atlantic Generation LLC,IPP Non-CHP,Christiana Ave & Lobdell St,Wilmington,New Castle,Delaware,19801,petroleum,Petroleum = 50 MW,Petroleum Liquids,55,50,,,,,,,,,50,,,,"EIA-860, EIA-860M and EIA-923",202406,-75.5371,39.7302
-8418738.0908,4808043.4389,36199,592,Delaware City 10,56609,Calpine Mid-Atlantic Generation LLC,IPP Non-CHP,Rt 9 & River Road,Delaware City,New Castle,Delaware,19706,petroleum,Petroleum = 18 MW,Petroleum Liquids,18.5,18,,,,,,,,,18,,,,"EIA-860, EIA-860M and EIA-923",202406,-75.626811,39.600408
-8405049.0217,4828066.3758,36200,593,Edge Moor,56609,Calpine Mid-Atlantic Generation LLC,IPP Non-CHP,200 Hay Road,Wilmington,New Castle,Delaware,19809,natural gas,"Natural Gas = 695 MW, Petroleum = 12 MW",Natural Gas Steam Turbine; Petroleum Liquids;,710.3,707,,,,,,,695,,12,,,,"EIA-860, EIA-860M and EIA-923",202406,-75.50384,39.73886
-8375021.7023,4662499.2098,36201,594,Indian River Generating Station,9332,Indian River Operations Inc,IPP Non-CHP,29416 Power Plant Road,Dagsboro,Sussex,Delaware,19939,coal,"Coal = 410 MW, Petroleum = 16.1 MW",Conventional Steam Coal; Petroleum Liquids;,464.1,426.1,,,410,,,,,,16.1,,,,"EIA-860, EIA-860M and EIA-923",202406,-75.2341,38.5857
-8418970.6373,4826537.773,36202,597,West Station (DE),56609,Calpine Mid-Atlantic Generation LLC,IPP Non-CHP,Route 41,Wilmington,New Castle,Delaware,19808,petroleum,Petroleum = 15 MW,Petroleum Liquids,16.2,15,,,,,,,,,15,,,,"EIA-860, EIA-860M and EIA-923",202406,-75.6289,39.7283
-8520076.6761,4747785.6258,36203,602,Brandon Shores,60421,Brandon Shores LLC,IPP Non-CHP,1000 Brandon Shores Rd,Baltimore,Anne Arundel,Maryland,21226,coal,Coal = 1273 MW,Conventional Steam Coal,1370.2,1273,,,1273,,,,,,,,,,"EIA-860, EIA-860M and EIA-923",202406,-76.537151,39.182073
-13629490.9109,6183021.4891,36204,607,Fredonia,15500,Puget Sound Energy Inc,Electric Utility,13085 Ball Road,Mt Vernon,Skagit,Washington,98233,natural gas,Natural Gas = 280 MW,Natural Gas Fired Combustion Turbine,376,280,,,,,,,280,,,,,,"EIA-860, EIA-860M and EIA-923",202406,-122.4358,48.4558
-8990651.8822,3308334.9823,36205,609,Cape Canaveral,6452,Florida Power & Light Co,Electric Utility,6000 North US Hwy 1,Cocoa,Brevard,Florida,32927,natural gas,Natural Gas = 1290 MW,Natural Gas Fired Combined Cycle,1295,1290,,,,,,,1290,,,,,,"EIA-860, EIA-860M and EIA-923",202406,-80.7644,28.4698
-9104053.0475,3085629.2573,36206,612,Fort Myers,6452,Florida Power & Light Co,Electric Utility,10650 State Rd 80,Ft. Myers,Lee,Florida,33902,natural gas,"Natural Gas = 2627.5 MW, Petroleum = 108 MW",Natural Gas Fired Combined Cycle; Natural Gas Fired Combustion Turbine; Petroleum Liquids,2680.9,2735.5,,,,,,,2627.5,,108,,,,"EIA-860, EIA-860M and EIA-923",202406,-81.7831,26.6967
-8927645.0504,3007579.831,36207,613,Lauderdale,6452,Florida Power & Light Co,Electric Utility,4300 SW 42nd Avenue,Ft. Lauderdale,Broward,Florida,33314,natural gas,Natural Gas = 1223.6 MW,Natural Gas Fired Combustion Turbine,1215.9,1223.6,,,,,,,1223.6,,,,,,"EIA-860, EIA-860M and EIA-923",202406,-80.1984,26.0686
-8919507.5957,3009686.7385,36208,617,Port Everglades,6452,Florida Power & Light Co,Electric Utility,8100 Eisenhower Blvd,Ft. Lauderdale,Broward,Florida,33316,natural gas,Natural Gas = 1237 MW,Natural Gas Fired Combined Cycle,1352,1237,,,,,,,1237,,,,,,"EIA-860, EIA-860M and EIA-923",202406,-80.1253,26.0856
-8911403.5367,3094179.5619,36209,619,Riviera,6452,Florida Power & Light Co,Electric Utility,200-300 Broadway,Riviera Beach,Palm Beach,Florida,33404,natural gas,Natural Gas = 1290 MW,Natural Gas Fired Combined Cycle,1295,1290,,,,,,,1290,,,,,,"EIA-860, EIA-860M and EIA-923",202406,-80.0525,26.7653
-9053124.3805,3355538.7955,36210,620,Sanford,6452,Florida Power & Light Co,Electric Utility,950 S Hwy 17-92,DeBary,Volusia,Florida,32713,natural gas,Natural Gas = 2352 MW,Natural Gas Fired Combined Cycle,2377.8,2352,,,,,,,2352,,,,,,"EIA-860, EIA-860M and EIA-923",202406,-81.3256,28.8419
-9198917.0685,3218504.2893,36215,627,Bayboro,6455,"Duke Energy Florida, LLC",Electric Utility,263 13th Avenue South,St. Petersburg,Pinellas,Florida,33701,petroleum,Petroleum = 150.5 MW,Petroleum Liquids,226.8,150.5,,,,,,,,,150.5,,,,"EIA-860, EIA-860M and EIA-923",202406,-82.635278,27.758056
-9205865.8538,3371268.4139,36216,628,Crystal River,6455,"Duke Energy Florida, LLC",Electric Utility,15760 West Powerline Street,Crystal River,Citrus,Florida,34428,natural gas,"Coal = 1410 MW, Natural Gas = 1617 MW",Conventional Steam Coal; Natural Gas Fired Combined Cycle;,3449,3027,,,1410,,,,1617,,,,,,"EIA-860, EIA-860M and EIA-923",202406,-82.6977,28.9656
-9195185.7505,3231275.8814,36218,634,P L Bartow,6455,"Duke Energy Florida, LLC",Electric Utility,1601 Weedon Island Drive,St. Petersburg,Pinellas,Florida,33702,natural gas,"Natural Gas = 1198 MW, Petroleum = 82 MW",Natural Gas Fired Combined Cycle; Natural Gas Fired Combustion Turbine; Petroleum Liquids,1475.6,1280,,,,,,,1198,,82,,,,"EIA-860, EIA-860M and EIA-923",202406,-82.601759,27.859535
-9259617.1378,3552023.4712,36219,638,Suwannee River,6455,"Duke Energy Florida, LLC",Electric Utility,4037 River Road,Live Oak,Suwannee,Florida,32060,natural gas,"Natural Gas = 97 MW, Petroleum = 48 MW",Natural Gas Fired Combustion Turbine; Petroleum Liquids;,197.7,145,,,,,,,97,,48,,,,"EIA-860, EIA-860M and EIA-923",202406,-83.180556,30.376389
-9709775.7927,3576526.2509,36220,641,Gulf Clean Energy Center,6452,Florida Power & Light Co,Electric Utility,11999 Pate Street,Pensacola,Escambia,Florida,32514,natural gas,Natural Gas = 1858.2 MW,Natural Gas Fired Combustion Turbine; Natural Gas Steam Turbine;,2107.5,1858.2,,,,,,,1858.2,,,,,,"EIA-860, EIA-860M and EIA-923",202406,-87.2244,30.5661
-9540113.7568,3538122.8044,36221,643,Lansing Smith,6452,Florida Power & Light Co,Electric Utility,4300 Highway 2300,Southport,Bay,Florida,32409,natural gas,"Natural Gas = 660 MW, Petroleum = 32 MW",Natural Gas Fired Combined Cycle; Petroleum Liquids;,661.5,692,,,,,,,660,,32,,,,"EIA-860, EIA-860M and EIA-923",202406,-85.7003,30.2686
-9173126.7915,3223076.9755,36222,645,Big Bend,18454,Tampa Electric Co,Electric Utility,13031 Wyandotte Road,Apollo Beach,Hillsborough,Florida,33572,natural gas,"Battery = 12.6 MW, Coal = 437 MW, Natural Gas = 1111 MW, Solar = 19.8 MW",Batteries; Conventional Steam Coal; Natural Gas Fired Combined Cycle; Natural Gas Fired Combustion Turbine; Solar Photovoltaic,1829.4,1580.4,12.6,,437,,,,1111,,,19.8,,,"EIA-860, EIA-860M and EIA-923",202406,-82.4036,27.7944
-9171367.9436,3472634.6499,36224,663,Deerhaven Generating Station,6909,Gainesville Regional Utilities,Electric Utility,10001 NW 13th Street,Gainesville,Alachua,Florida,32653,natural gas,Natural Gas = 414 MW,Natural Gas Fired Combustion Turbine; Natural Gas Steam Turbine;,471,414,,,,,,,414,,,,,,"EIA-860, EIA-860M and EIA-923",202406,-82.3878,29.7592
-9163909.5377,3458139.9306,36225,664,John R Kelly,6909,Gainesville Regional Utilities,Electric Utility,515 SE 5 Ave,Gainesville,Alachua,Florida,32601,natural gas,Natural Gas = 113 MW,Natural Gas Fired Combined Cycle,141.6,113,,,,,,,113,,,,,,"EIA-860, EIA-860M and EIA-923",202406,-82.3208,29.6461
-8957879.4241,2934275.3923,36226,665,G W Ivey,8795,City of Homestead - (FL),Electric Utility,675 N. Flagler Avenue,Homestead,Miami Dade,Florida,33030,natural gas,"Natural Gas = 30.8 MW, Petroleum = 1.9 MW",Natural Gas Internal Combustion Engine; Petroleum Liquids;,35.7,32.7,,,,,,,30.8,,1.9,,,,"EIA-860, EIA-860M and EIA-923",202406,-80.47,25.4756
-9086561.0819,3550530.5205,36227,666,J D Kennedy,9617,JEA,Electric Utility,4215 Talleyrand Ave.,Jacksonville,Duval,Florida,32206,natural gas,Natural Gas = 357.2 MW,Natural Gas Fired Combustion Turbine,370,357.2,,,,,,,357.2,,,,,,"EIA-860, EIA-860M and EIA-923",202406,-81.625967,30.364818
-9078382.7729,3557290.5307,36228,667,Northside Generating Station,9617,JEA,Electric Utility,4377 Heckscher Drive,Jacksonville,Duval,Florida,32226,coal,"Coal = 586 MW, Natural Gas = 524 MW, Petroleum = 212 MW",Conventional Steam Coal; Natural Gas Steam Turbine; Petroleum Liquids,1407.1,1322,,,586,,,,524,,212,,,,"EIA-860, EIA-860M and EIA-923",202406,-81.5525,30.4172
-8913095.593,3075174.8461,36229,673,Tom G Smith,10620,City of Lake Worth Beach - (FL),Electric Utility,117 College Avenue,Lake Worth,Palm Beach,Florida,33460,natural gas,"Natural Gas = 57.5 MW, Petroleum = 36 MW",Natural Gas Fired Combined Cycle; Natural Gas Steam Turbine; Petroleum Liquids,98.7,93.5,,,,,,,57.5,,36,,,,"EIA-860, EIA-860M and EIA-923",202406,-80.0677,26.612767
-9119715.6998,3255165.5878,36231,675,Larsen Memorial,10623,City of Lakeland - (FL),Electric Utility,2002 E. Rd 92,Lakeland,Polk,Florida,33801,natural gas,Natural Gas = 163.2 MW,Natural Gas Fired Combined Cycle; Natural Gas Fired Combustion Turbine;,133.6,163.2,,,,,,,163.2,,,,,,"EIA-860, EIA-860M and EIA-923",202406,-81.9238,28.0491
-9119615.5123,3259076.3256,36232,676,C D McIntosh Jr,10623,City of Lakeland - (FL),Electric Utility,3030 E. Lake Parker Dr,Lakeland,Polk,Florida,33801,natural gas,"Natural Gas = 488.5 MW, Petroleum = 5 MW",Natural Gas Fired Combined Cycle; Natural Gas Fired Combustion Turbine; Petroleum Liquids,545.6,493.5,,,,,,,488.5,,5,,,,"EIA-860, EIA-860M and EIA-923",202406,-81.9229,28.0801
-8992402.2699,3311302.5868,36235,683,Indian River Plant,14610,Orlando Utilities Comm,Electric Utility,7800 South US Hwy,Titusville,Brevard,Florida,32780,natural gas,Natural Gas = 275.8 MW,Natural Gas Fired Combustion Turbine,342.8,275.8,,,,,,,275.8,,,,,,"EIA-860, EIA-860M and EIA-923",202406,-80.780124,28.493232
-9395365.023,3561809.3784,36236,688,Arvah B Hopkins,18445,City of Tallahassee - (FL),Electric Utility,1125 Geddie Road,Tallahassee,Leon,Florida,32304,natural gas,Natural Gas = 484.5 MW,Natural Gas Fired Combined Cycle; Natural Gas Fired Combustion Turbine; Natural Gas Internal Combustion Engine,673.1,484.5,,,,,,,484.5,,,,,,"EIA-860, EIA-860M and EIA-923",202406,-84.4,30.4522
-9373176.0428,3524429.6162,36237,689,S O Purdom,18445,City of Tallahassee - (FL),Electric Utility,Hwy 363,St Marks,Wakulla,Florida,32355,natural gas,Natural Gas = 226 MW,Natural Gas Fired Combined Cycle,270.1,226,,,,,,,226,,,,,,"EIA-860, EIA-860M and EIA-923",202406,-84.200673,30.162304
-9027198.0711,2840268.552,36240,696,Marathon Generating Plant,6443,"Florida Keys El Coop Assn, Inc",Electric Utility,3421 Overseas Highway,Marathon,Monroe,Florida,33050,petroleum,Petroleum = 11 MW,Petroleum Liquids,11,11,,,,,,,,,11,,,,"EIA-860, EIA-860M and EIA-923",202406,-81.0927,24.710833
-10423400.5204,4877370.7998,36241,698,Trenton North,19150,Trenton Municipal Utilities - (MO),Electric Utility,921 Industrial Drive,Trenton,Grundy,Missouri,64683,petroleum,Petroleum = 13.5 MW,Petroleum Liquids,13.5,13.5,,,,,,,,,13.5,,,,"EIA-860, EIA-860M and EIA-923",202406,-93.635,40.0786
-9453496.061,4045679.5317,36243,703,Bowen,7140,Georgia Power Co,Electric Utility,"317 Covered Bridge Road, SW",Cartersville,Bartow,Georgia,30120,coal,Coal = 3200 MW,Conventional Steam Coal,3498.6,3200,,,3200,,,,,,,,,,"EIA-860, EIA-860M and EIA-923",202406,-84.9222,34.1256
-9403803.0404,4005180.5381,36247,710,Jack McDonough,7140,Georgia Power Co,Electric Utility,5551 South Cobb Drive,Smyrna,Cobb,Georgia,30080,natural gas,"Natural Gas = 2471 MW, Petroleum = 64 MW",Natural Gas Fired Combined Cycle; Petroleum Liquids;,2848.4,2535,,,,,,,2471,,64,,,,"EIA-860, EIA-860M and EIA-923",202406,-84.4758,33.8239
-9077677.5639,3660526.2067,36250,715,McManus,7140,Georgia Power Co,Electric Utility,One Crispen Island,Brunswick,Glynn,Georgia,31523,petroleum,Petroleum = 416 MW,Petroleum Liquids,560,416,,,,,,,,,416,,,,"EIA-860, EIA-860M and EIA-923",202406,-81.546165,31.213645
-9450868.9211,3956815.2119,36259,728,Yates,7140,Georgia Power Co,Electric Utility,708 Dyer Road,Newnan,Coweta,Georgia,30264,natural gas,Natural Gas = 714 MW,Natural Gas Steam Turbine,807.4,714,,,,,,,714,,,,,,"EIA-860, EIA-860M and EIA-923",202406,-84.8986,33.4622
-9344239.7657,3742943.3564,36265,753,Crisp Plant,4538,Crisp County Power Comm,Electric Utility,961 Powerdam Road,Warwick,Worth,Georgia,31796,natural gas,Natural Gas = 19 MW,Natural Gas Fired Combustion Turbine; Natural Gas Steam Turbine;,22.5,19,,,,,,,19,,,,,,"EIA-860, EIA-860M and EIA-923",202406,-83.940734,31.844708
-17602823.3957,2434425.9745,36272,765,Kahe,19547,Hawaiian Electric Co Inc,Electric Utility,92-200 Farrington Hwy,Kapolei,Honolulu,Hawaii,96707,petroleum,Petroleum = 582.1 MW,Petroleum Liquids,609.7,582.1,,,,,,,,,582.1,,,,"EIA-860, EIA-860M and EIA-923",202406,-158.128853,21.356395
-17584195.7487,2438323.2283,36273,766,Waiau,19547,Hawaiian Electric Co Inc,Electric Utility,475 Kamehamenha Hwy,Pearl City,Honolulu,Hawaii,96782,petroleum,Petroleum = 456.6 MW,Petroleum Liquids,474.6,456.6,,,,,,,,,456.6,,,,"EIA-860, EIA-860M and EIA-923",202406,-157.961518,21.388997
-17331943.7788,2276016.452,36274,768,Waimea,8287,Hawaii Electric Light Co Inc,Electric Utility,66-1591 Kawaihae Road,Kamuela,Hawaii,Hawaii,96743,petroleum,Petroleum = 7.5 MW,Petroleum Liquids,7.5,7.5,,,,,,,,,7.5,,,,"EIA-860, EIA-860M and EIA-923",202406,-155.6955,20.0252
-17261478.5411,2238140.326,36275,769,Kanoelehua,8287,Hawaii Electric Light Co Inc,Electric Utility,54 Halekauila Street,Hilo,Hawaii,Hawaii,96720,petroleum,Petroleum = 20 MW,Petroleum Liquids,21,20,,,,,,,,,20,,,,"EIA-860, EIA-860M and EIA-923",202406,-155.0625,19.7052
-17261278.166,2238010.2582,36277,772,W H Hill,8287,Hawaii Electric Light Co Inc,Electric Utility,54 Halekauila Street,Hilo,Hawaii,Hawaii,96720,petroleum,Petroleum = 35.5 MW,Petroleum Liquids,37.1,35.5,,,,,,,,,35.5,,,,"EIA-860, EIA-860M and EIA-923",202406,-155.0607,19.7041
-16225147.8492,8524554.1177,36282,789,Orca,40215,"Cordova Electric Coop, Inc",Electric Utility,103 Orca Road,Cordova,Valdez Cordova,Alaska,99574,petroleum,Petroleum = 8.7 MW,Petroleum Liquids,8.7,8.7,,,,,,,,,8.7,,,,"EIA-860, EIA-860M and EIA-923",202406,-145.752983,60.555889
-17484362.4256,2404522.4527,36285,792,Palaau Power Hybrid,11843,Maui Electric Co Ltd,Electric Utility,32A Ulili Street,Kaunakakai,Maui,Hawaii,96748,petroleum,"Battery = 2 MW, Petroleum = 14 MW",Batteries; Petroleum Liquids;,17.1,16,2,,,,,,,,14,,,,"EIA-860, EIA-860M and EIA-923",202406,-157.0647,21.106
-12677654.3841,5650435.3667,36297,817,Salmon Diesel,9191,Idaho Power Co,Electric Utility,14 St. Charles Rd.,Salmon,Lemhi,Idaho,83467,petroleum,Petroleum = 5.4 MW,Petroleum Liquids,5,5.4,,,,,,,,,5.4,,,,"EIA-860, EIA-860M and EIA-923",202406,-113.885307,45.183368
-9964336.8628,4531182.5194,36318,862,Grand Tower Energy Center LLC,59371,Mainline Generation LLC,IPP Non-CHP,1820 Power Plant Road,Grand Tower,Jackson,Illinois,62942,natural gas,Natural Gas = 511 MW,Natural Gas Fired Combined Cycle,640.9,511,,,,,,,511,,,,,,"EIA-860, EIA-860M and EIA-923",202406,-89.511161,37.6577
-9962692.4513,4806620.1693,36320,876,Kincaid Generation LLC,59918,Dynegy Kincaid Generation,IPP Non-CHP,4 Miles West of Kincaid Rt 104,Kincaid,Christian,Illinois,62540,coal,Coal = 1112 MW,Conventional Steam Coal,1319,1112,,,1112,,,,,,,,,,"EIA-860, EIA-860M and EIA-923",202406,-89.496389,39.590556
-9982976.0871,4944843.9018,36321,879,Powerton,12384,Midwest Generations EME LLC,IPP Non-CHP,Rt 29 & Manito Rd,Pekin,Tazewell,Illinois,61554,coal,Coal = 1538 MW,Conventional Steam Coal,1785.6,1538,,,1538,,,,,,,,,,"EIA-860, EIA-860M and EIA-923",202406,-89.6786,40.5408
-9775331.8409,5218569.9802,36323,883,Waukegan,12384,Midwest Generations EME LLC,IPP Non-CHP,10 Greenwood Ave,Waukegan,Lake,Illinois,60087,petroleum,Petroleum = 107.8 MW,Petroleum Liquids,112,107.8,,,,,,,,,107.8,,,,"EIA-860, EIA-860M and EIA-923",202406,-87.8133,42.3833
-9757520.7224,5138656.1427,36324,886,Fisk Street,12384,Midwest Generations EME LLC,IPP Non-CHP,1111 W Cermak Rd,Chicago,Cook,Illinois,60608,petroleum,Petroleum = 197.2 MW,Petroleum Liquids,260,197.2,,,,,,,,,197.2,,,,"EIA-860, EIA-860M and EIA-923",202406,-87.6533,41.8508
-10002546.0535,4608426.0517,36325,889,Baldwin Energy Complex,5517,Dynegy Midwest Generation Inc,IPP Non-CHP,10901 Baldwin Rd Box146,Baldwin,Randolph,Illinois,62217,coal,Coal = 1157 MW,Conventional Steam Coal,1259.6,1157,,,1157,,,,,,,,,,"EIA-860, EIA-860M and EIA-923",202406,-89.8544,38.205
-10078201.1172,5087853.9986,36326,899,Moline,12341,MidAmerican Energy Co,Electric Utility,100 2nd Street,Moline,Rock Island,Illinois,61265,natural gas,"Hydroelectric = 3.2 MW,Natural Gas = 60 MW",Conventional Hydroelectric; Natural Gas Fired Combustion Turbine;,75.6,63.2,,,,,3.2,,60,,,,,,"EIA-860, EIA-860M and EIA-923",202406,-90.534021,41.509959
-10038390.9296,4673684.6125,36330,913,Venice,19436,Union Electric Co - (MO),Electric Utility,701 Main Street,Venice,Madison,Illinois,62090,natural gas,Natural Gas = 486 MW,Natural Gas Fired Combustion Turbine,586,486,,,,,,,486,,,,,,"EIA-860, EIA-860M and EIA-923",202406,-90.1764,38.6642
-9965823.312,4665597.9788,36333,934,Breese,2188,City of Breese - (IL),Electric Utility,800 North First Street,Breese,Clinton,Illinois,62230,petroleum,Petroleum = 17 MW,Petroleum Liquids,16.9,17,,,,,,,,,17,,,,"EIA-860, EIA-860M and EIA-923",202406,-89.524514,38.607456
-10075951.6842,4945984.4921,36334,935,Bushnell,2634,City of Bushnell - (IL),Electric Utility,175 Charles Street,Bushnell,McDonough,Illinois,61422,petroleum,Petroleum = 10.8 MW,Petroleum Liquids,10.8,10.8,,,,,,,,,10.8,,,,"EIA-860, EIA-860M and EIA-923",202406,-90.513814,40.548586
-9947320.4542,4666045.8654,36335,936,Carlyle,3037,City of Carlyle - (IL),Electric Utility,550 First St,Carlyle,Clinton,Illinois,62231,petroleum,Petroleum = 12.3 MW,Petroleum Liquids,12.3,12.3,,,,,,,,,12.3,,,,"EIA-860, EIA-860M and EIA-923",202406,-89.3583,38.6106
-9814271.3988,4593095.3005,36336,937,Carmi,3040,City of Carmi - (IL),Electric Utility,108 Shipley,Carmi,White,Illinois,62821,petroleum,Petroleum = 13 MW,Petroleum Liquids,13.4,13,,,,,,,,,13,,,,"EIA-860, EIA-860M and EIA-923",202406,-88.1631,38.0967
-9867221.7391,4901771.0318,36337,941,Farmer City,6192,City of Farmer City - (IL),Electric Utility,401 E Allen St,Farmer City,DeWitt,Illinois,61842,petroleum,"Natural Gas = 4.1 MW, Petroleum = 5.6 MW",Natural Gas Internal Combustion Engine; Petroleum Liquids;,11.3,9.7,,,,,,,4.1,,5.6,,,,"EIA-860, EIA-860M and EIA-923",202406,-88.638761,40.24611
-10009230.121,4639718.2631,36338,943,Freeburg,6764,Village of Freeburg - (IL),Electric Utility,412 WEST HIGH St.,Freeburg,St Clair,Illinois,62243,petroleum,Petroleum = 15.8 MW,Petroleum Liquids,15.8,15.8,,,,,,,,,15.8,,,,"EIA-860, EIA-860M and EIA-923",202406,-89.914444,38.425556
-10035290.3478,5079166.7577,36339,944,Geneseo,7095,City of Geneseo - (IL),Electric Utility,433 East North Street,Geneseo,Henry,Illinois,61254,natural gas,"Natural Gas = 19.5 MW, Petroleum = 3.8 MW,Solar = 0.9 MW,Wind = 3 MW",Natural Gas Internal Combustion Engine; Petroleum Liquids; Solar Photovoltaic; Onshore Wind Turbine;,33.6,27.2,,,,,,,19.5,,3.8,0.9,3,,"EIA-860, EIA-860M and EIA-923",202406,-90.148547,41.451494
-9983677.3998,4684668.2003,36340,946,Highland,8573,City of Highland,Electric Utility,501 Ninth Street,Highland,Madison,Illinois,62249,petroleum,Petroleum = 12.8 MW,Petroleum Liquids,13.6,12.8,,,,,,,,,12.8,,,,"EIA-860, EIA-860M and EIA-923",202406,-89.6849,38.7412
-9856375.8811,4592809.9933,36341,948,McLeansboro,12167,City of McLeansboro - (IL),Electric Utility,305 West Market St,McLeansboro,Hamilton,Illinois,62859,petroleum,Petroleum = 8.4 MW,Petroleum Liquids,9.2,8.4,,,,,,,,,8.4,,,,"EIA-860, EIA-860M and EIA-923",202406,-88.541331,38.094683
-9761064.0217,4777998.6505,36342,949,Marshall (IL),11736,City of Marshall - (IL),Electric Utility,14th St & Pine St,Marshall,Clark,Illinois,62441,petroleum,Petroleum = 16.9 MW,Petroleum Liquids,16.9,16.9,,,,,,,,,16.9,,,,"EIA-860, EIA-860M and EIA-923",202406,-87.68513,39.392138
-9919935.8594,5060205.2239,36343,955,Peru (IL),14840,City of Peru - (IL),Electric Utility,4005 Plank Rd.,City of Peru,LaSalle,Illinois,61354,petroleum,"Hydroelectric = 6.8 MW, Petroleum = 27.5 MW",Conventional Hydroelectric; Petroleum Liquids;,36.5,34.3,,,,,6.8,,,,27.5,,,,"EIA-860, EIA-860M and EIA-923",202406,-89.1123,41.3237
-9959183.9949,5067890.752,36344,957,Princeton (IL),15388,City of Princeton - (IL),Electric Utility,1 North Main,Princeton,Bureau,Illinois,61356,natural gas,Natural Gas = 37.7 MW,Natural Gas Internal Combustion Engine,37.9,37.7,,,,,,,37.7,,,,,,"EIA-860, EIA-860M and EIA-923",202406,-89.464872,41.375528
-9813864.4147,4911417.803,36345,958,Rantoul,15686,Village of Rantoul - (IL),Electric Utility,200 West Grove Ave,Rantoul,Champaign,Illinois,61866,petroleum,Petroleum = 14.4 MW,Petroleum Liquids,14.4,14.4,,,,,,,,,14.4,,,,"EIA-860, EIA-860M and EIA-923",202406,-88.159444,40.312222
-10018665.1158,4610055.3091,36346,959,Red Bud,15772,City of Red Bud - (IL),Electric Utility,525 Power Street,Red Bud,Randolph,Illinois,62278,petroleum,Petroleum = 14.3 MW,Petroleum Liquids,15,14.3,,,,,,,,,14.3,,,,"EIA-860, EIA-860M and EIA-923",202406,-89.9992,38.2165
-9912978.3912,5147402.6918,36347,960,North Ninth Street,16179,Rochelle Municipal Utilities,Electric Utility,120 North Ninth Street,Rochelle,Ogle,Illinois,61068,natural gas,"Natural Gas = 12.5 MW, Petroleum = 1.8 MW,Solar = 0.3 MW",Natural Gas Internal Combustion Engine; Petroleum Liquids; Solar Photovoltaic,17.4,14.6,,,,,,,12.5,,1.8,0.3,,,"EIA-860, EIA-860M and EIA-923",202406,-89.0498,41.9093
-9913045.1829,5147387.7336,36348,961,South Main Street,16179,Rochelle Municipal Utilities,Electric Utility,1015 Caron Rd,Rochelle,Ogle,Illinois,61068,petroleum,"Natural Gas = 3.6 MW, Petroleum = 10.8 MW",Natural Gas Internal Combustion Engine; Petroleum Liquids;,15.8,14.4,,,,,,,3.6,,10.8,,,,"EIA-860, EIA-860M and EIA-923",202406,-89.0504,41.9092
-9974492.3173,4830374.6334,36349,963,Dallman,17828,City of Springfield - (IL),Electric Utility,3100 Stevenson Drive,Springfield,Sangamon,Illinois,62703,coal,Coal = 204.7 MW,Conventional Steam Coal,230.1,204.7,,,204.7,,,,,,,,,,"EIA-860, EIA-860M and EIA-923",202406,-89.602389,39.754803
-9974283.3707,4830740.1119,36350,964,Lakeside,17828,City of Springfield - (IL),Electric Utility,3100 Stevenson Drive,Springfield,Sangamon,Illinois,62703,petroleum,Petroleum = 5.1 MW,Petroleum Liquids,5.4,5.1,,,,,,,,,5.1,,,,"EIA-860, EIA-860M and EIA-923",202406,-89.600512,39.757327
-9978863.1658,4837916.4265,36351,965,Reynolds,17828,City of Springfield - (IL),Electric Utility,1013 Reynolds Street,Springfield,Sangamon,Illinois,62702,petroleum,Petroleum = 14.7 MW,Petroleum Liquids,17.5,14.7,,,,,,,,,14.7,,,,"EIA-860, EIA-860M and EIA-923",202406,-89.641653,39.806868
-9864236.4843,4807502.9714,36352,969,Sullivan (IL),18277,City of Sullivan - (IL),Electric Utility,517 West  Water,Sullivan,Moultrie,Illinois,61951,petroleum,Petroleum = 24.1 MW,Petroleum Liquids,23.7,24.1,,,,,,,,,24.1,,,,"EIA-860, EIA-860M and EIA-923",202406,-88.611944,39.596667
-10036447.1799,4626828.3988,36353,971,Waterloo,20180,City of Waterloo - (IL),Electric Utility,616 Market Street,Waterloo,Monroe,Illinois,62298,petroleum,"Natural Gas = 13.2 MW, Petroleum = 15.1 MW",Natural Gas Fired Combustion Turbine; Petroleum Liquids;,30.2,28.3,,,,,,,13.2,,15.1,,,,"EIA-860, EIA-860M and EIA-923",202406,-90.158939,38.334786
-9766173.0298,5178309.8724,36354,972,Winnetka,20824,Village of Winnetka - (IL),Electric Utility,725 Tower Road,Winnetka,Cook,Illinois,60093,natural gas,"Natural Gas = 28.2 MW, Petroleum = 5.2 MW",Natural Gas Steam Turbine; Petroleum Liquids;,33.4,33.4,,,,,,,28.2,,5.2,,,,"EIA-860, EIA-860M and EIA-923",202406,-87.731025,42.115589
-9902215.355,4525847.2106,36355,976,Marion,17632,Southern Illinois Power Coop,Electric Utility,11543 Lake of Egypt Rd.,Marion,Williamson,Illinois,62959,natural gas,"Coal = 120 MW, Natural Gas = 140 MW",Conventional Steam Coal; Natural Gas Fired Combustion Turbine;,249,260,,,120,,,,140,,,,,,"EIA-860, EIA-860M and EIA-923",202406,-88.953114,37.619747
-9508977.6953,4684182.961,36356,983,Clifty Creek,9269,Indiana-Kentucky Electric Corp,Electric Utility,1335 Clifty Hollow Road,Madison,Jefferson,Indiana,47250,coal,Coal = 1173 MW,Conventional Steam Coal,1303.8,1173,,,1173,,,,,,,,,,"EIA-860, EIA-860M and EIA-923",202406,-85.4206,38.7378
-9595391.3424,4824080.1953,36360,990,Harding Street,9273,Indianapolis Power & Light Co,Electric Utility,3700 South Harding Street,Indianapolis,Marion,Indiana,46217,natural gas,"Battery = 20 MW, Natural Gas = 906 MW, Petroleum = 40 MW",Batteries; Natural Gas Fired Combustion Turbine; Natural Gas Steam Turbine; Petroleum Liquids;,1064.7,966,20,,,,,,906,,40,,,,"EIA-860, EIA-860M and EIA-923",202406,-86.196867,39.711319
-9620041.1512,4791408.2168,36361,991,Eagle Valley (IN),9273,Indianapolis Power & Light Co,Electric Utility,4040 Blue Bluff Road,Martinsville,Morgan,Indiana,46151,natural gas,Natural Gas = 673 MW,Natural Gas Fired Combined Cycle,644,673,,,,,,,673,,,,,,"EIA-860, EIA-860M and EIA-923",202406,-86.4183,39.48517
-9592033.1673,4831576.1001,36362,992,CC Perry K,3599,Citizens Thermal Energy,IPP CHP,366 Kentucky Avenue,Indianapolis,Marion,Indiana,46225,natural gas,Natural Gas = 6.4 MW,Natural Gas Steam Turbine,8.4,6.4,,,,,,,6.4,,,,,,"EIA-860, EIA-860M and EIA-923",202406,-86.1667,39.7631
-9712903.8704,4654299.6077,36363,994,AES Petersburg,9273,Indianapolis Power & Light Co,Electric Utility,State Road 57,Petersburg,Pike,Indiana,47567,coal,"Coal = 1057.2 MW, Petroleum = 9 MW",Conventional Steam Coal; Petroleum Liquids;,1349.9,1066.2,,,1057.2,,,,,,9,,,,"EIA-860, EIA-860M and EIA-923",202406,-87.2525,38.5281
-9674621.0976,5119247.9575,36364,997,Michigan City,13756,Northern Indiana Pub Serv Co,Electric Utility,100 N. Wabash,Michigan City,LaPorte,Indiana,46360,coal,Coal = 455 MW,Conventional Steam Coal,540,455,,,455,,,,,,,,,,"EIA-860, EIA-860M and EIA-923",202406,-86.9086,41.7208
-9732039.6909,4854933.3362,36367,1001,Cayuga,15470,"Duke Energy Indiana, LLC",Electric Utility,PO Box 188 SR 63 North,Cayuga,Vermillion,Indiana,47928,coal,"Coal = 995 MW, Natural Gas = 84 MW, Petroleum = 10 MW",Conventional Steam Coal; Natural Gas Fired Combustion Turbine; Petroleum Liquids,1184.9,1089,,,995,,,,84,,10,,,,"EIA-860, EIA-860M and EIA-923",202406,-87.4244,39.9242
-9712313.8771,4694020.7075,36368,1004,Edwardsport,15470,"Duke Energy Indiana, LLC",Electric Utility,15400 Villwock Rd,Edwardsport,Knox,Indiana,47500,coal,Coal = 555 MW,Coal Integrated Gasification Combined Cycle,812.7,555,,,555,,,,,,,,,,"EIA-860, EIA-860M and EIA-923",202406,-87.2472,38.8067
-9570292.4708,4880033.531,36370,1007,Noblesville,15470,"Duke Energy Indiana, LLC",Electric Utility,21225 Riverwood Ave,Noblesville,Hamilton,Indiana,46060,natural gas,Natural Gas = 264 MW,Natural Gas Fired Combined Cycle,283,264,,,,,,,264,,,,,,"EIA-860, EIA-860M and EIA-923",202406,-85.9714,40.0969
-9721252.8322,4566874.8253,36371,1012,F B Culley,17633,Southern Indiana Gas & Elec Co,Electric Utility,3700 Darlington Road,Newburgh,Warrick,Indiana,47630,coal,Coal = 360 MW,Conventional Steam Coal,368.9,360,,,360,,,,,,,,,,"EIA-860, EIA-860M and EIA-923",202406,-87.3275,37.9111
-8775248.6675,4177288.5763,36372,1016,Butler-Warner Generation Plant,6235,Fayetteville Public Works Commission,Electric Utility,2274 Custer Ave,Fayetteville,Cumberland,North Carolina,28312,natural gas,"Battery = 0.5 MW, Natural Gas = 225 MW, Solar = 1 MW",Batteries; Natural Gas Fired Combined Cycle; Natural Gas Fired Combustion Turbine; Solar Photovoltaic;,304.9,226.5,0.5,,,,,,225,,,1,,,"EIA-860, EIA-860M and EIA-923",202406,-78.8294,35.0986
-9579877.0789,4976285.8033,36374,1037,Peru (IN),14839,City of Peru - (IN),Electric Utility,307 East Canal Street,Peru,Miami,Indiana,46970,petroleum,Petroleum = 1.8 MW,Petroleum Liquids,1.8,1.8,,,,,,,,,1.8,,,,"EIA-860, EIA-860M and EIA-923",202406,-86.0575,40.7551
-9701991.4434,5003426.1453,36375,1038,Rensselaer City Light Plant,15860,City of Rensselaer - (IN),Electric Utility,425 N Van Rensselaer,Rensselaer,Jasper,Indiana,47978,natural gas,"Natural Gas = 13.1 MW, Petroleum = 8 MW",Natural Gas Internal Combustion Engine; Petroleum Liquids;,21.8,21.1,,,,,,,13.1,,8,,,,"EIA-860, EIA-860M and EIA-923",202406,-87.154472,40.939528
-9450501.5667,4837326.9572,36376,1040,Whitewater Valley,15989,City of Richmond - (IN),Electric Utility,2000 US 27 SOUTH,RICHMOND,Wayne,Indiana,47375,coal,Coal = 99.7 MW,Conventional Steam Coal,93.9,99.7,,,99.7,,,,,,,,,,"EIA-860, EIA-860M and EIA-923",202406,-84.8953,39.8028
-10337066.0214,5168082.3808,36378,1068,Marshalltown,9417,Interstate Power and Light Co,Electric Utility,3001 E. Main St Rd,Marshalltown,Marshall,Iowa,50158,natural gas,Natural Gas = 104.8 MW,Natural Gas Fired Combustion Turbine,189,104.8,,,,,,,104.8,,,,,,"EIA-860, EIA-860M and EIA-923",202406,-92.859444,42.0474
-10201225.4072,5152600.4401,36379,1073,Prairie Creek,9417,Interstate Power and Light Co,Electric Utility,3300 C Street SW,Cedar Rapids,Linn,Iowa,52404,natural gas,"Coal = 29.9 MW, Natural Gas = 126.4 MW",Conventional Steam Coal; Natural Gas Steam Turbine;,213.4,156.3,,,29.9,,,,126.4,,,,,,"EIA-860, EIA-860M and EIA-923",202406,-91.639167,41.944039
-10192857.7437,5111954.2322,36380,1079,Coralville GT,12341,MidAmerican Energy Co,Electric Utility,401-1st Avenue,Coralville,Johnson,Iowa,52240,natural gas,Natural Gas = 62.1 MW,Natural Gas Fired Combustion Turbine,72,62.1,,,,,,,62.1,,,,,,"EIA-860, EIA-860M and EIA-923",202406,-91.563999,41.671877
-10668949.0532,5038927.986,36381,1082,Walter Scott Jr Energy Center,12341,MidAmerican Energy Co,Electric Utility,7215 Navajo St.,Council Bluffs,Pottawattamie,Iowa,51501,coal,Coal = 1511.7 MW,Conventional Steam Coal,1648.3,1511.7,,,1511.7,,,,,,,,,,"EIA-860, EIA-860M and EIA-923",202406,-95.8408,41.18
-10421674.957,5099792.3703,36382,1084,River Hills,12341,MidAmerican Energy Co,Electric Utility,105 Grand Ave,Des Moines,Polk,Iowa,50309,natural gas,Natural Gas = 118.4 MW,Natural Gas Fired Combustion Turbine,128,118.4,,,,,,,118.4,,,,,,"EIA-860, EIA-860M and EIA-923",202406,-93.619499,41.590218
-10728940.24,5209813.4743,36383,1091,George Neal North,12341,MidAmerican Energy Co,Electric Utility,1151 - 260 St,Sergeant Bluff,Woodbury,Iowa,51052,coal,Coal = 510 MW,Conventional Steam Coal,584.1,510,,,510,,,,,,,,,,"EIA-860, EIA-860M and EIA-923",202406,-96.37971,42.32517
-10318559.824,5320545.2109,36384,1097,Merl Parr,12341,MidAmerican Energy Co,Electric Utility,160 - 11 St,Charles City,Floyd,Iowa,50616,natural gas,Natural Gas = 32.5 MW,Natural Gas Fired Combustion Turbine,36,32.5,,,,,,,32.5,,,,,,"EIA-860, EIA-860M and EIA-923",202406,-92.6932,43.0563
-10143060.9732,4974243.341,36385,1104,Burlington (IA),9417,Interstate Power and Light Co,Electric Utility,4282 Sullivan Slough Road,Burlington,Des Moines,Iowa,52601,natural gas,Natural Gas = 168.3 MW,Natural Gas Fired Combustion Turbine; Natural Gas Steam Turbine;,290.8,168.3,,,,,,,168.3,,,,,,"EIA-860, EIA-860M and EIA-923",202406,-91.116667,40.7412
-10490659.7568,5323135.5178,36387,1120,Algona,309,City of Algona - (IA),Electric Utility,521 N Hall St.,Algona,Kossuth,Iowa,50511,petroleum,Petroleum = 16.1 MW,Petroleum Liquids,16.1,16.1,,,,,,,,,16.1,,,,"EIA-860, EIA-860M and EIA-923",202406,-94.2392,43.0733
-10609036.9033,5262421.6678,36388,1121,Alta Municipal Utilities,405,City of Alta - (IA),Electric Utility,209 East 2nd Street,Alta,Buena Vista,Iowa,51002,petroleum,Petroleum = 4 MW,Petroleum Liquids,4,4,,,,,,,,,4,,,,"EIA-860, EIA-860M and EIA-923",202406,-95.3026,42.6736
-10420495.0817,5164844.9427,36389,1122,Ames Electric Services Power Plant,554,City of Ames - (IA),Electric Utility,200 E 5th St,Ames,Story,Iowa,50010,natural gas,Natural Gas = 104.7 MW,Natural Gas Steam Turbine,108.8,104.7,,,,,,,104.7,,,,,,"EIA-860, EIA-860M and EIA-923",202406,-93.6089,42.0258
-10549355.63,5078087.065,36390,1123,Anita,682,City of Anita - (IA),Electric Utility,828 Main Street,Anita,Cass,Iowa,50020,petroleum,Petroleum = 2.7 MW,Petroleum Liquids,2.9,2.7,,,,,,,,,2.7,,,,"EIA-860, EIA-860M and EIA-923",202406,-94.766474,41.444224
-10575351.6254,5072857.54,36391,1124,Atlantic,965,Atlantic Municipal Utilities,Electric Utility,201 N. Pine Street,Atlantic,Cass,Iowa,50022,natural gas,Natural Gas = 9.8 MW,Natural Gas Fired Combustion Turbine,10,9.8,,,,,,,9.8,,,,,,"EIA-860, EIA-860M and EIA-923",202406,-95,41.409
-10488196.813,5356619.4118,36392,1125,Bancroft,1172,Bancroft Municipal Utilities,Electric Utility,108 North Portland,Bancroft,Kossuth,Iowa,50517,petroleum,Petroleum = 4.1 MW,Petroleum Liquids,4.2,4.1,,,,,,,,,4.1,,,,"EIA-860, EIA-860M and EIA-923",202406,-94.217075,43.292628
-10065141.0032,5198502.1078,36393,1126,Bellevue,1515,City of Bellevue - (IA),Electric Utility,900 N. Riverview,Bellevue,Jackson,Iowa,52031,petroleum,Petroleum = 8.7 MW,Petroleum Liquids,9.8,8.7,,,,,,,,,8.7,,,,"EIA-860, EIA-860M and EIA-923",202406,-90.4167,42.25
-10288737.3324,4968647.1245,36394,1127,Bloomfield,1869,City of Bloomfield - (IA),Electric Utility,111 W Franklin St,Bloomfield,Davis,Iowa,52537,natural gas,"Natural Gas = 6.5 MW, Petroleum = 0.4 MW",Natural Gas Internal Combustion Engine; Petroleum Liquids;,8.5,6.9,,,,,,,6.5,,0.4,,,,"EIA-860, EIA-860M and EIA-923",202406,-92.4253,40.7031
-10291253.1529,5120292.0122,36395,1128,Brooklyn,2287,City of Brooklyn - (IA),Electric Utility,123 E Front Street,Brooklyn,Poweshiek,Iowa,52211,petroleum,Petroleum = 2 MW,Petroleum Liquids,2.3,2,,,,,,,,,2,,,,"EIA-860, EIA-860M and EIA-923",202406,-92.4479,41.7278
-10131406.6018,5205755.058,36396,1129,Cascade,3137,Cascade Municipal Utilities,Electric Utility,201 Pierce St SW,Cascade,Dubuque,Iowa,52033,petroleum,Petroleum = 6.8 MW,Petroleum Liquids,7.2,6.8,,,,,,,,,6.8,,,,"EIA-860, EIA-860M and EIA-923",202406,-91.011974,42.29821
-10294381.2306,5237985.805,36397,1130,Gas Turbine (IA),3203,Cedar Falls Utilities,Electric Utility,West 27th Street,Cedar Falls,Black Hawk,Iowa,50613,natural gas,Natural Gas = 40.3 MW,Natural Gas Fired Combustion Turbine,43.4,40.3,,,,,,,40.3,,,,,,"EIA-860, EIA-860M and EIA-923",202406,-92.476,42.512
-10290306.9372,5240206.0051,36398,1131,Streeter Station,3203,Cedar Falls Utilities,Electric Utility,Utility Parkway,Cedar Falls,Black Hawk,Iowa,50613,natural gas,Natural Gas = 55.6 MW,Natural Gas Steam Turbine,51.5,55.6,,,,,,,55.6,,,,,,"EIA-860, EIA-860M and EIA-923",202406,-92.4394,42.5267
-10189374.1115,5203139.2341,36399,1132,Coggon,65337,Coggon Municipal Light Plant,Electric Utility,131 West Main St,Coggon,Linn,Iowa,52218,petroleum,Petroleum = 1.8 MW,Petroleum Liquids,2,1.8,,,,,,,,,1.8,,,,"EIA-860, EIA-860M and EIA-923",202406,-91.532705,42.280827
-10545874.2242,5010439.103,36400,1134,Corning,4375,City of Corning - (IA),Electric Utility,501 Benton Avenue,Corning,Adams,Iowa,50841,petroleum,Petroleum = 6.8 MW,Petroleum Liquids,6.8,6.8,,,,,,,,,6.8,,,,"EIA-860, EIA-860M and EIA-923",202406,-94.7352,40.9871
-10471740.2301,5200030.4678,36401,1135,Dayton (IA),4919,City of Dayton - (IA),Electric Utility,101 South Main Street,Dayton,Webster,Iowa,50530,petroleum,Petroleum = 1.8 MW,Petroleum Liquids,1.8,1.8,,,,,,,,,1.8,,,,"EIA-860, EIA-860M and EIA-923",202406,-94.069243,42.260162
-10557907.8612,5373484.4736,36402,1137,Estherville,5998,City of Estherville - (IA),Electric Utility,21 North 1st Street,Estherville,Emmet,Iowa,51334,natural gas,"Natural Gas = 12.5 MW, Petroleum = 1.1 MW",Natural Gas Internal Combustion Engine; Petroleum Liquids;,15.6,13.6,,,,,,,12.5,,1.1,,,,"EIA-860, EIA-860M and EIA-923",202406,-94.8433,43.4028
-10423443.1558,5352125.1148,36403,1138,Forest City Light Plant,6579,City of Forest City- (IA),Electric Utility,306 East J St,Forest City,Winnebago,Iowa,50436,petroleum,Petroleum = 21.2 MW,Petroleum Liquids,22,21.2,,,,,,,,,21.2,,,,"EIA-860, EIA-860M and EIA-923",202406,-93.635383,43.263235
-10496199.5712,5203437.1515,36404,1141,Gowrie,7424,Gowrie Municipal Utilities,Electric Utility,1102 Main St.,Gowrie,Webster,Iowa,50543,petroleum,Petroleum = 2.2 MW,Petroleum Liquids,2.5,2.2,,,,,,,,,2.2,,,,"EIA-860, EIA-860M and EIA-923",202406,-94.288965,42.282807
-10547499.4888,5348528.0914,36405,1142,Graettinger,7443,City of Graettinger - (IA),Electric Utility,101 W Hoffman Street,Graettinger,Palo Alto,Iowa,51342,petroleum,Petroleum = 3.1 MW,Petroleum Liquids,3.1,3.1,,,,,,,,,3.1,,,,"EIA-860, EIA-860M and EIA-923",202406,-94.7498,43.2397
-10505209.2142,5165414.4123,36406,1143,Grand Junction,7486,City of Grand Junction - (IA),Electric Utility,305 South 11th,Grand Junction,Greene,Iowa,50107,petroleum,Petroleum = 1.7 MW,Petroleum Liquids,1.7,1.7,,,,,,,,,1.7,,,,"EIA-860, EIA-860M and EIA-923",202406,-94.3699,42.0296
-10327367.6447,5215525.2985,36407,1145,Grundy Center City Light Plant,7743,Grundy Center Mun Light & Power,Electric Utility,504 7th. Street.,Grundy Center,Grundy,Iowa,50638,petroleum,Petroleum = 8.7 MW,Petroleum Liquids,8.7,8.7,,,,,,,,,8.7,,,,"EIA-860, EIA-860M and EIA-923",202406,-92.772322,42.363094
-10610448.7684,5107881.3853,36408,1146,Harlan,8122,Harlan Municipal Utilities - (IA),Electric Utility,405 Chatburn Ave.,Harlan,Shelby,Iowa,51537,petroleum,Petroleum = 3.2 MW,Petroleum Liquids,3.4,3.2,,,,,,,,,3.2,,,,"EIA-860, EIA-860M and EIA-923",202406,-95.315283,41.644542
-10415415.3507,5065511.9857,36409,1150,Indianola,9275,Indianola Municipal Utilities,Electric Utility,111 South Buxton Street,Indianola,Warren,Iowa,50125,petroleum,Petroleum = 42.2 MW,Petroleum Liquids,40.9,42.2,,,,,,,,,42.2,,,,"EIA-860, EIA-860M and EIA-923",202406,-93.563268,41.359491
-10610450.6608,5377668.2798,36410,1153,Lake Park,10608,City of Lake Park - (IA),Electric Utility,209 South Market St,Lake Park,Dickinson,Iowa,51347,petroleum,Petroleum = 4 MW,Petroleum Liquids,4,4,,,,,,,,,4,,,,"EIA-860, EIA-860M and EIA-923",202406,-95.3153,43.4301
-10411956.8768,5375691.0814,36411,1154,Lake Mills,10606,City of Lake Mills,Electric Utility,201 S. Mill Street,Lake Mills,Winnebago,Iowa,50450,petroleum,Petroleum = 17.7 MW,Petroleum Liquids,17.7,17.7,,,,,,,,,17.7,,,,"EIA-860, EIA-860M and EIA-923",202406,-93.5322,43.4172
-10456529.2009,4956745.6167,36412,1155,Lamoni Municipal Utilities,10650,City of Lamoni - (IA),Electric Utility,111 S. Chestnut St.,Lamoni,Decatur,Iowa,50140,petroleum,Petroleum = 10 MW,Petroleum Liquids,10.5,10,,,,,,,,,10,,,,"EIA-860, EIA-860M and EIA-923",202406,-93.9326,40.622
-10262855.5508,5208417.8212,36413,1156,La Porte,10542,La Porte City Utilities,Electric Utility,305 Locust St,La Porte City,Black Hawk,Iowa,50651,petroleum,Petroleum = 5.4 MW,Petroleum Liquids,5.4,5.4,,,,,,,,,5.4,,,,"EIA-860, EIA-860M and EIA-923",202406,-92.1928,42.3159
-10558720.4934,5288955.5421,36414,1157,Laurens,10769,City of Laurens - (IA),Electric Utility,210 RailRoad Street,Laurens,Pocahontas,Iowa,50554,petroleum,Petroleum = 8.3 MW,Petroleum Liquids,9.1,8.3,,,,,,,,,8.3,,,,"EIA-860, EIA-860M and EIA-923",202406,-94.8506,42.8486
-10526248.598,4994657.7714,36415,1158,Lenox,10908,City of Lenox - (IA),Electric Utility,205 South Main,Lenox,Taylor,Iowa,50851,petroleum,Petroleum = 5.8 MW,Petroleum Liquids,6.1,5.8,,,,,,,,,5.8,,,,"EIA-860, EIA-860M and EIA-923",202406,-94.5589,40.88
-10579214.4117,5147013.7862,36416,1160,Manning,11581,City of Manning,Electric Utility,614 Main St,Manning,Carroll,Iowa,51455,petroleum,Petroleum = 7.9 MW,Petroleum Liquids,7.9,7.9,,,,,,,,,7.9,,,,"EIA-860, EIA-860M and EIA-923",202406,-95.0347,41.9067
-10092781.6328,5166307.0493,36417,1162,Maquoketa 1,11611,City of Maquoketa - (IA),Electric Utility,505 N. Old Highway 61,Maquoketa,Jackson,Iowa,52060,natural gas,"Natural Gas = 16.9 MW, Petroleum = 5.1 MW",Natural Gas Internal Combustion Engine; Petroleum Liquids;,24.4,22,,,,,,,16.9,,5.1,,,,"EIA-860, EIA-860M and EIA-923",202406,-90.665,42.035556
-10149546.4468,5315584.9495,36418,1163,McGregor,12114,City of McGregor- (IA),Electric Utility,126 1st Street,McGregor,Clayton,Iowa,52157,petroleum,Petroleum = 1.5 MW,Petroleum Liquids,1.5,1.5,,,,,,,,,1.5,,,,"EIA-860, EIA-860M and EIA-923",202406,-91.174927,43.023733
-10591864.6473,5361737.4474,36419,1164,Milford,12541,City of Milford - (IA),Electric Utility,806 N Ave.,Milford,Dickinson,Iowa,51351,petroleum,Petroleum = 6.5 MW,Petroleum Liquids,6.5,6.5,,,,,,,,,6.5,,,,"EIA-860, EIA-860M and EIA-923",202406,-95.148339,43.326083
-10299590.9828,5099168.4513,36420,1165,Montezuma,12839,City of Montezuma - (IA),Electric Utility,406 East Washington,Montezuma,Poweshiek,Iowa,50171,petroleum,"Natural Gas = 4.1 MW, Petroleum = 5.5 MW",Natural Gas Internal Combustion Engine; Petroleum Liquids;,9.8,9.6,,,,,,,4.1,,5.5,,,,"EIA-860, EIA-860M and EIA-923",202406,-92.5228,41.586026
-10191435.3032,5008186.893,36421,1166,Mt Pleasant,13038,City of Mt Pleasant - (IA),Electric Utility,509 North Adams Street,Mt Pleasant,Henry,Iowa,52641,petroleum,Petroleum = 24 MW,Petroleum Liquids,24,24,,,,,,,,,24,,,,"EIA-860, EIA-860M and EIA-923",202406,-91.551221,40.971826
-10136407.7412,5070290.1368,36422,1167,Muscatine Plant #1,13143,Board of Water Electric & Communications,Electric Utility,1700 Dick Drake Way,Muscatine,Muscatine,Iowa,52761,coal,Coal = 248.9 MW,Conventional Steam Coal,275.5,248.9,,,248.9,,,,,,,,,,"EIA-860, EIA-860M and EIA-923",202406,-91.0569,41.3917
-10277026.522,5322465.0165,36423,1168,New Hampton,13444,City of New Hampton - (IA),Electric Utility,921 Canty Av,New Hampton,Chickasaw,Iowa,50659,natural gas,"Natural Gas = 13.5 MW, Petroleum = 10.6 MW",Natural Gas Internal Combustion Engine; Petroleum Liquids;,26.5,24.1,,,,,,,13.5,,10.6,,,,"EIA-860, EIA-860M and EIA-923",202406,-92.3201,43.0689
-10469175.095,5166553.4535,36424,1169,Ogden,13990,City of Ogden - (IA),Electric Utility,201 NW 3rd Street,Ogden,Boone,Iowa,50212,petroleum,Petroleum = 4 MW,Petroleum Liquids,3.9,4,,,,,,,,,4,,,,"EIA-860, EIA-860M and EIA-923",202406,-94.0462,42.0372
-10331623.8342,5354645.7699,36425,1172,Osage (IA),14201,City of Osage - (IA),Electric Utility,720 Chestnut,Osage,Mitchell,Iowa,50461,natural gas,"Natural Gas = 9.1 MW, Petroleum = 7.2 MW,Solar = 0.8 MW,Wind = 0.5 MW",Natural Gas Internal Combustion Engine; Petroleum Liquids; Solar Photovoltaic; Onshore Wind Turbine;,19,17.6,,,,,,,9.1,,7.2,0.8,0.5,,"EIA-860, EIA-860M and EIA-923",202406,-92.810556,43.279722
-10062636.3147,5168577.0863,36427,1176,Preston (IA),15349,City of Preston,Electric Utility,22 West Gillet Street,Preston,Jackson,Iowa,52069,natural gas,"Natural Gas = 1.8 MW, Petroleum = 2 MW",Natural Gas Internal Combustion Engine; Petroleum Liquids;,3.6,3.8,,,,,,,1.8,,2,,,,"EIA-860, EIA-860M and EIA-923",202406,-90.3942,42.0507
-10346790.4469,5319417.8899,36428,1180,Rockford,16211,City of Rockford- (IA),Electric Utility,18 1st St. S,Rockford,Floyd,Iowa,50468,petroleum,Petroleum = 2.9 MW,Petroleum Liquids,2.9,2.9,,,,,,,,,2.9,,,,"EIA-860, EIA-860M and EIA-923",202406,-92.9468,43.0489
-10705502.5891,5377567.7237,36429,1181,Rock Rapids,16206,Rock Rapids Municipal Utility,Electric Utility,310 S Third Ave,Rock Rapids,Lyon,Iowa,51246,petroleum,Petroleum = 2.5 MW,Petroleum Liquids,2.5,2.5,,,,,,,,,2.5,,,,"EIA-860, EIA-860M and EIA-923",202406,-96.169166,43.429444
-10656180.7076,5373821.5603,36430,1184,Sibley One,17141,City of Sibley - (IA),Electric Utility,1108 3rd Ave.,Sibley,Osceola,Iowa,51249,petroleum,Petroleum = 4.8 MW,Petroleum Liquids,5.2,4.8,,,,,,,,,4.8,,,,"EIA-860, EIA-860M and EIA-923",202406,-95.7261,43.405
-10591410.2411,5334005.116,36431,1186,Spencer Gas Turbine,17783,City of Spencer - (IA),Electric Utility,712 N Grand Avenue,Spencer,Clay,Iowa,51301,petroleum,Petroleum = 17 MW,Petroleum Liquids,23.8,17,,,,,,,,,17,,,,"EIA-860, EIA-860M and EIA-923",202406,-95.144257,43.144585
-10370894.4562,5163476.8564,36432,1187,State Center,18014,City of State Center - (IA),Electric Utility,103 2nd Ave NW,State Center,Marshall,Iowa,50247,petroleum,"Natural Gas = 2.5 MW, Petroleum = 3.8 MW",Natural Gas Internal Combustion Engine; Petroleum Liquids;,6.3,6.3,,,,,,,2.5,,3.8,,,,"EIA-860, EIA-860M and EIA-923",202406,-93.16333,42.01667
-10419557.6603,5188893.6086,36433,1188,Story City,18177,City of Story City - (IA),Electric Utility,505 Market Street,Story City,Story,Iowa,50248,petroleum,"Natural Gas = 2 MW, Petroleum = 11.5 MW",Natural Gas Internal Combustion Engine; Petroleum Liquids;,13.9,13.5,,,,,,,2,,11.5,,,,"EIA-860, EIA-860M and EIA-923",202406,-93.600479,42.186076
-10499342.677,5086951.7001,36434,1190,Stuart (IA),18231,City of Stuart - (IA),Electric Utility,114 North Fremont Street,Stuart,Guthrie,Iowa,50250,petroleum,Petroleum = 2.7 MW,Petroleum Liquids,2.8,2.7,,,,,,,,,2.7,,,,"EIA-860, EIA-860M and EIA-923",202406,-94.3172,41.503889
-10252280.1992,5288621.5075,36435,1191,Sumner,18301,City of Sumner - (IA),Electric Utility,410 Pleasant St,Sumner,BREMER,Iowa,50674,petroleum,Petroleum = 5.4 MW,Petroleum Liquids,5.4,5.4,,,,,,,,,5.4,,,,"EIA-860, EIA-860M and EIA-923",202406,-92.0978,42.8464
-10293000.8689,5189873.794,36436,1192,Traer Main,19062,City of Traer - (IA),Electric Utility,649 2nd Street,Traer,Tama,Iowa,50675,petroleum,Petroleum = 3.2 MW,Petroleum Liquids,3.5,3.2,,,,,,,,,3.2,,,,"EIA-860, EIA-860M and EIA-923",202406,-92.4636,42.1926
-10573737.4927,5002243.1737,36437,1193,Villisca Municipal Power Plant,19843,City of Villisca - (IA),Electric Utility,102 North U Avenue,Villisca,Montgomery,Iowa,50864,petroleum,Petroleum = 4 MW,Petroleum Liquids,4,4,,,,,,,,,4,,,,"EIA-860, EIA-860M and EIA-923",202406,-94.9855,40.9315
-10243864.4457,5186433.6746,36438,1194,Vinton,19865,City of Vinton - (IA),Electric Utility,214 E 2nd St,Vinton,Benton,Iowa,52349,natural gas,"Natural Gas = 16.1 MW, Petroleum = 1.1 MW",Natural Gas Internal Combustion Engine; Petroleum Liquids;,17.5,17.2,,,,,,,16.1,,1.1,,,,"EIA-860, EIA-860M and EIA-923",202406,-92.0222,42.1697
-10443436.9156,5231799.4882,36439,1198,Webster City,20259,City of Webster City - (IA),Electric Utility,501 Union Street,Webster City,Hamilton,Iowa,50595,petroleum,Petroleum = 20.7 MW,Petroleum Liquids,21.3,20.7,,,,,,,,,20.7,,,,"EIA-860, EIA-860M and EIA-923",202406,-93.81499,42.471022
-10513633.2054,5306060.5012,36440,1199,West Bend,20364,City of West Bend,Electric Utility,13 North Broadway,West Bent,Palo Alto,Iowa,50597,petroleum,Petroleum = 6.4 MW,Petroleum Liquids,6.7,6.4,,,,,,,,,6.4,,,,"EIA-860, EIA-860M and EIA-923",202406,-94.445574,42.961151
-10159467.5737,5096653.8373,36441,1200,West Liberty,20380,City of West Liberty - (IA),Electric Utility,105 West Second Street,West Liberty,Muscatine,Iowa,52776,petroleum,Petroleum = 14.8 MW,Petroleum Liquids,16.5,14.8,,,,,,,,,14.8,,,,"EIA-860, EIA-860M and EIA-923",202406,-91.26405,41.569128
-10132239.4942,5099424.7414,36442,1202,Wilton,20789,City of Wilton - (IA),Electric Utility,220 3rd Street,Wilton,Muscatine,Iowa,52778,petroleum,Petroleum = 9.2 MW,Petroleum Liquids,9.2,9.2,,,,,,,,,9.2,,,,"EIA-860, EIA-860M and EIA-923",202406,-91.019456,41.587748
-10465434.7602,5062206.5377,36443,1203,Winterset,20835,City of Winterset - (IA),Electric Utility,321 North John Wayne Dr.,Winterset,Madison,Iowa,50273,petroleum,Petroleum = 17.6 MW,Petroleum Liquids,17.6,17.6,,,,,,,,,17.6,,,,"EIA-860, EIA-860M and EIA-923",202406,-94.0126,41.3372
-10502682.2618,5029112.1052,36444,1206,Summit Lake,3258,Central Iowa Power Cooperative,Electric Utility,1632 REA Rd,Creston,Union,Iowa,50801,natural gas,Natural Gas = 111.8 MW,Natural Gas Fired Combustion Turbine; Natural Gas Internal Combustion Engine;,118.7,111.8,,,,,,,111.8,,,,,,"EIA-860, EIA-860M and EIA-923",202406,-94.3472,41.1136
-10603949.6025,5336448.84,36445,1217,Earl F Wisdom,4363,Corn Belt Power Coop,Electric Utility,3365 165 Ave,Spencer,Clay,Iowa,51301,natural gas,Natural Gas = 113.5 MW,Natural Gas Fired Combustion Turbine; Natural Gas Steam Turbine;,119.1,113.5,,,,,,,113.5,,,,,,"EIA-860, EIA-860M and EIA-923",202406,-95.2569,43.1606
-11302479.4073,4830852.046,36446,1224,Bird City,12524,Midwest Energy Inc - (KS),Electric Utility,North Main Street & Hwy 36,Bird City,Cheyenne,Kansas,67731,petroleum,Petroleum = 4 MW,Petroleum Liquids,4,4,,,,,,,,,4,,,,"EIA-860, EIA-860M and EIA-923",202406,-101.5319,39.7581
-11247521.1973,4779563.5126,36447,1225,Colby,12524,Midwest Energy Inc - (KS),Electric Utility,1100 N. Country Club Drive,Colby,Thomas,Kansas,67701,natural gas,Natural Gas = 13 MW,Natural Gas Fired Combustion Turbine,16,13,,,,,,,13,,,,,,"EIA-860, EIA-860M and EIA-923",202406,-101.038202,39.403001
-11216763.3994,4461585.902,36448,1230,Cimarron River,18315,Sunflower Electric Power Corp,Electric Utility,12406 Road R.,Liberal,Seward,Kansas,67901,natural gas,Natural Gas = 67.3 MW,Natural Gas Fired Combustion Turbine; Natural Gas Steam Turbine;,65,67.3,,,,,,,67.3,,,,,,"EIA-860, EIA-860M and EIA-923",202406,-100.7619,37.1611
-11126349.7089,4541747.8769,36449,1233,Fort Dodge,18315,Sunflower Electric Power Corp,Electric Utility,11453 Ft. Dodge Rd.,Dodge City,Ford,Kansas,67801,natural gas,Natural Gas = 148.8 MW,Natural Gas Steam Turbine,149,148.8,,,,,,,148.8,,,,,,"EIA-860, EIA-860M and EIA-923",202406,-99.9497,37.7328
-11006035.6033,4637508.0723,36450,1235,Great Bend - Sunflower,18315,Sunflower Electric Power Corp,Electric Utility,335 NW 50 Ave,Great Bend,Barton,Kansas,67530,natural gas,Natural Gas = 99.8 MW,Natural Gas Steam Turbine,81.6,99.8,,,,,,,99.8,,,,,,"EIA-860, EIA-860M and EIA-923",202406,-98.8689,38.41
-10541811.5081,4449233.3603,36451,1239,Riverton,5860,Empire District Electric Co,Electric Utility,7240 SE HWY 66,Riverton,Cherokee,Kansas,66770,natural gas,Natural Gas = 274 MW,Natural Gas Fired Combined Cycle; Natural Gas Fired Combustion Turbine;,300.2,274,,,,,,,274,,,,,,"EIA-860, EIA-860M and EIA-923",202406,-94.698704,37.072616
-10856062.3118,4549844.4433,36452,1240,Gordon Evans Energy Center,10005,"Evergy Kansas South, Inc",Electric Utility,6001 N. 151 St. W,Colwich,Sedgwick,Kansas,67030,natural gas,"Natural Gas = 300.1 MW, Petroleum = 3 MW",Natural Gas Fired Combustion Turbine; Petroleum Liquids;,378,303.1,,,,,,,300.1,,3,,,,"EIA-860, EIA-860M and EIA-923",202406,-97.521667,37.7903
-10535899.9978,4628718.0521,36453,1241,La Cygne,10000,Evergy Metro,Electric Utility,25166 E. 2200 Rd,La Cygne,Linn,Kansas,66040,coal,Coal = 1426 MW,Conventional Steam Coal,1598.9,1426,,,1426,,,,,,,,,,"EIA-860, EIA-860M and EIA-923",202406,-94.6456,38.3481
-10895364.2146,4592232.4721,36454,1248,Hutchinson Energy Center,22500,"Evergy Kansas Central, Inc",Electric Utility,3200 E 30th Ave,Hutchinson,Reno,Kansas,67501,natural gas,"Natural Gas = 168.5 MW, Petroleum = 72.8 MW",Natural Gas Fired Combustion Turbine; Petroleum Liquids;,345.3,241.3,,,,,,,168.5,,72.8,,,,"EIA-860, EIA-860M and EIA-923",202406,-97.874722,38.0906
-10605315.1587,4722702.9633,36455,1250,Lawrence Energy Center,22500,"Evergy Kansas Central, Inc",Electric Utility,1250 N 1800 Rd,Lawrence,Douglas,Kansas,66049,coal,Coal = 485.3 MW,Conventional Steam Coal,517,485.3,,,485.3,,,,,,,,,,"EIA-860, EIA-860M and EIA-923",202406,-95.269167,39.0072
-10912772.1339,4460272.9576,36456,1258,Anthony,701,City of Anthony - (KS),Electric Utility,71D SW 20th Rd,Anthony,Harper,Kansas,67003,natural gas,Natural Gas = 11.1 MW,Natural Gas Internal Combustion Engine,11.1,11.1,,,,,,,11.1,,,,,,"EIA-860, EIA-860M and EIA-923",202406,-98.0311,37.1517
-11105574.4863,4466152.728,36457,1259,Ashland,911,City of Ashland - (KS),Electric Utility,201 North Chestnut,Ashland,Clark,Kansas,67831,petroleum,"Natural Gas = 1.3 MW, Petroleum = 3.6 MW",Natural Gas Internal Combustion Engine; Petroleum Liquids;,5.6,4.9,,,,,,,1.3,,3.6,,,,"EIA-860, EIA-860M and EIA-923",202406,-99.763073,37.193787
-10794865.8688,4534101.2023,36458,1261,Augusta Electric Plant No 1,998,City of Augusta - (KS),Electric Utility,621 Grove Street,Augusta,Butler,Kansas,67010,natural gas,"Natural Gas = 8.5 MW, Petroleum = 3 MW",Natural Gas Internal Combustion Engine; Petroleum Liquids;,11.5,11.5,,,,,,,8.5,,3,,,,"EIA-860, EIA-860M and EIA-923",202406,-96.97193,37.678454
-10596134.9743,4689421.9131,36459,1262,Baldwin City Plant No 1,1148,City of Baldwin City- (KS),Electric Utility,605 High Street,Baldwin City,Douglas,Kansas,66006,petroleum,Petroleum = 2.9 MW,Petroleum Liquids,4.2,2.9,,,,,,,,,2.9,,,,"EIA-860, EIA-860M and EIA-923",202406,-95.1867,38.7745
-10868348.7553,4841670.402,36460,1263,Belleville,1512,City of Belleville - (KS),Electric Utility,1819 L Street,Belleville,Republic,Kansas,66935,natural gas,"Natural Gas = 11.5 MW, Petroleum = 2.8 MW",Natural Gas Internal Combustion Engine; Petroleum Liquids;,14.3,14.3,,,,,,,11.5,,2.8,,,,"EIA-860, EIA-860M and EIA-923",202406,-97.632038,39.832769
-10921800.1446,4787461.2644,36461,1264,Beloit,1525,City of Beloit - (KS),Electric Utility,215 S. Chestnut,Beloit,Mitchell,Kansas,67420,natural gas,Natural Gas = 16.6 MW,Natural Gas Internal Combustion Engine,19.3,16.6,,,,,,,16.6,,,,,,"EIA-860, EIA-860M and EIA-923",202406,-98.1122,39.4578
-10668503.7753,4686652.2132,36462,1265,Burlingame,2547,City of Burlingame - (KS),Electric Utility,204 West Lincoln,Burlingame,Osage,Kansas,66413,natural gas,Natural Gas = 3.6 MW,Natural Gas Internal Combustion Engine,4,3.6,,,,,,,3.6,,,,,,"EIA-860, EIA-860M and EIA-923",202406,-95.8368,38.7551
-10658836.0114,4606788.6948,36463,1266,Burlington (KS),2551,City of Burlington - (KS),Electric Utility,110 South 11th Street,Burlington,Coffey,Kansas,66839,petroleum,"Natural Gas = 4.8 MW, Petroleum = 5.6 MW",Natural Gas Internal Combustion Engine; Petroleum Liquids;,10.4,10.4,,,,,,,4.8,,5.6,,,,"EIA-860, EIA-860M and EIA-923",202406,-95.749953,38.193441
-10626402.7438,4536470.8946,36464,1268,Chanute 2,3355,City of Chanute,Electric Utility,1415 N Garfield,Chanute,Neosho,Kansas,66720,natural gas,Natural Gas = 46 MW,Natural Gas Fired Combustion Turbine; Natural Gas Internal Combustion Engine;,64,46,,,,,,,46,,,,,,"EIA-860, EIA-860M and EIA-923",202406,-95.4586,37.6953
-10812151.6707,4775381.4399,36465,1270,Clay Center,3710,City of Clay Center - (KS),Electric Utility,4th & Clay St.,Clay Center,Clay,Kansas,67432,natural gas,Natural Gas = 29.7 MW,Natural Gas Internal Combustion Engine; Natural Gas Steam Turbine;,29.9,29.7,,,,,,,29.7,,,,,,"EIA-860, EIA-860M and EIA-923",202406,-97.127211,39.373966
-10643555.8529,4444313.3383,36466,1271,Coffeyville,3892,City of Coffeyville - (KS),Electric Utility,605 Santa Fe,Coffeyville,Montgomery,Kansas,67337,natural gas,"Natural Gas = 37 MW, Petroleum = 4 MW",Natural Gas Steam Turbine; Petroleum Liquids;,44,41,,,,,,,37,,4,,,,"EIA-860, EIA-860M and EIA-923",202406,-95.612689,37.037344
-11249766.5114,4778326.498,36467,1272,Colby City of,3913,City of Colby - (KS),Electric Utility,120 N. Sterling,Colby,Thomas,Kansas,67701,petroleum,Petroleum = 17.7 MW,Petroleum Liquids,20.7,17.7,,,,,,,,,17.7,,,,"EIA-860, EIA-860M and EIA-923",202406,-101.058372,39.394414
-10974257.8962,4629628.5138,36468,1274,Ellinwood,5802,City of Ellinwood - (KS),Electric Utility,201 west 1ST,Ellinwood,Barton,Kansas,67526,natural gas,"Natural Gas = 6.8 MW, Petroleum = 0.4 MW",Natural Gas Internal Combustion Engine; Petroleum Liquids;,8.5,7.2,,,,,,,6.8,,0.4,,,,"EIA-860, EIA-860M and EIA-923",202406,-98.583436,38.354514
-10601789.8931,4518410.0466,36469,1276,Erie,5957,City of Erie - (KS),Electric Utility,618 east 2nd,Erie,Neosho,Kansas,66733,petroleum,Petroleum = 3.9 MW,Petroleum Liquids,4.3,3.9,,,,,,,,,3.9,,,,"EIA-860, EIA-860M and EIA-923",202406,-95.237499,37.56681
-10602591.5048,4617595.7492,36470,1278,Garnett Municipal,6965,City of Garnett - (KS),Electric Utility,1513 South Walnut,Garnett,Anderson,Kansas,66032,petroleum,Petroleum = 10.2 MW,Petroleum Liquids,11.7,10.2,,,,,,,,,10.2,,,,"EIA-860, EIA-860M and EIA-923",202406,-95.2447,38.2697
-10557464.5869,4510113.1384,36471,1279,Girard,7257,City of Girard - (KS),Electric Utility,307 East Buffalo,Girard,Crawford,Kansas,66743,natural gas,Natural Gas = 9.5 MW,Natural Gas Internal Combustion Engine,10.8,9.5,,,,,,,9.5,,,,,,"EIA-860, EIA-860M and EIA-923",202406,-94.839318,37.507709
-11321769.7392,4770724.8007,36472,1280,Goodland,7374,City of Goodland - (KS),Electric Utility,1701 Cherry Street,Goodland,Sherman,Kansas,67735,natural gas,"Natural Gas = 15.4 MW, Petroleum = 0.7 MW",Natural Gas Internal Combustion Engine; Petroleum Liquids;,18.7,16.1,,,,,,,15.4,,0.7,,,,"EIA-860, EIA-860M and EIA-923",202406,-101.705188,39.341622
-10792335.5768,4673912.7227,36473,1283,Herington,8490,City of Herington - (KS),Electric Utility,435 South 5th,Herington,Dickinson,Kansas,67449,petroleum,Petroleum = 1.5 MW,Petroleum Liquids,1.6,1.5,,,,,,,,,1.5,,,,"EIA-860, EIA-860M and EIA-923",202406,-96.9492,38.6658
-11114327.2039,4773111.3037,36474,1285,Hill City,8599,City of Hill City,Electric Utility,724 South Pomeroy Street,Hill City,Graham,Kansas,67642,petroleum,Petroleum = 6.2 MW,Petroleum Liquids,6.9,6.2,,,,,,,,,6.2,,,,"EIA-860, EIA-860M and EIA-923",202406,-99.8417,39.3582
-10995549.3073,4652151.1453,36475,1286,Hoisington,8703,City of Hoisington - (KS),Electric Utility,164 South Elm,Hoisington,Barton,Kansas,67544,natural gas,"Natural Gas = 6 MW, Petroleum = 5 MW",Natural Gas Internal Combustion Engine; Petroleum Liquids;,10.9,11,,,,,,,6,,5,,,,"EIA-860, EIA-860M and EIA-923",202406,-98.7747,38.513
-10656787.3989,4789725.1283,36476,1287,Holton,8770,City of Holton - (KS),Electric Utility,1012 New Jersey Ave.,City of Holton,Jackson,Kansas,66436,petroleum,"Natural Gas = 6 MW, Petroleum = 13.4 MW",Natural Gas Internal Combustion Engine; Petroleum Liquids;,21.5,19.4,,,,,,,6,,13.4,,,,"EIA-860, EIA-860M and EIA-923",202406,-95.73155,39.4735
-10622726.0837,4568564.7236,36477,1291,Iola,9418,City of Iola - (KS),Electric Utility,1220 West 54 Highway,Iola,Allen,Kansas,66749,petroleum,"Natural Gas = 10 MW, Petroleum = 20.3 MW",Natural Gas Internal Combustion Engine; Petroleum Liquids;,29.3,30.3,,,,,,,10,,20.3,,,,"EIA-860, EIA-860M and EIA-923",202406,-95.425572,37.923076
-11120103.2384,4590780.254,36478,1292,Jetmore,9732,City of Jetmore,Electric Utility,910 Main St,Jetmore,Hodgeman,Kansas,67854,petroleum,Petroleum = 2.5 MW,Petroleum Liquids,2.5,2.5,,,,,,,,,2.5,,,,"EIA-860, EIA-860M and EIA-923",202406,-99.893587,38.080332
-10536544.4264,4734098.2236,36479,1294,Kaw,9996,City of Kansas City - (KS),Electric Utility,2015 Kansas Avenue,Kansas City,Wyandotte,Kansas,66105,natural gas,Natural Gas = 140.3 MW,Natural Gas Steam Turbine,165.7,140.3,,,,,,,140.3,,,,,,"EIA-860, EIA-860M and EIA-923",202406,-94.651389,39.0867
-10535065.1016,4743065.7815,36480,1295,Quindaro,9996,City of Kansas City - (KS),Electric Utility,3601 North 12th St,Kansas,Wyandotte,Kansas,66104,natural gas,"Natural Gas = 157 MW, Petroleum = 102 MW",Natural Gas Steam Turbine; Petroleum Liquids;,382.7,259,,,,,,,157,,102,,,,"EIA-860, EIA-860M and EIA-923",202406,-94.6381,39.1492
-10917142.9824,4492642.7685,36481,1296,Kingman Municipal Power and Light Plant,10321,City of Kingman - (KS),Electric Utility,405 West Sherman Street,Kingman,Kingman,Kansas,67068,natural gas,Natural Gas = 18 MW,Natural Gas Internal Combustion Engine,19.1,18,,,,,,,18,,,,,,"EIA-860, EIA-860M and EIA-923",202406,-98.070364,37.38311
-11054953.0611,4654807.1943,36482,1297,La Crosse,10559,City of La Crosse - (KS),Electric Utility,202 East 9th St.,La Crosse,Rush,Kansas,67548,petroleum,Petroleum = 5.5 MW,Petroleum Liquids,5.5,5.5,,,,,,,,,5.5,,,,"EIA-860, EIA-860M and EIA-923",202406,-99.308333,38.531667
-11031759.7565,4604342.2802,36483,1299,Larned,10713,City of Larned - (KS),Electric Utility,215 Main,Larned,Pawnee,Kansas,67550,petroleum,Petroleum = 16 MW,Petroleum Liquids,16.4,16,,,,,,,,,16,,,,"EIA-860, EIA-860M and EIA-923",202406,-99.099984,38.176167
-10926341.2006,4727000.1219,36484,1300,Lincoln,11017,City of Lincoln Center - (KS),Electric Utility,405 W South,Lincoln,Lincoln,Kansas,67455,petroleum,Petroleum = 7.6 MW,Petroleum Liquids,8.8,7.6,,,,,,,,,7.6,,,,"EIA-860, EIA-860M and EIA-923",202406,-98.152993,39.03719
-10874060.781,4630891.5686,36485,1305,McPherson 2,12208,City of McPherson - (KS),Electric Utility,1128 West Avenue A,McPherson,McPherson,Kansas,67460,natural gas,"Natural Gas = 102.6 MW, Petroleum = 51.7 MW",Natural Gas Fired Combustion Turbine; Petroleum Liquids;,214.8,154.3,,,,,,,102.6,,51.7,,,,"EIA-860, EIA-860M and EIA-923",202406,-97.68335,38.363411
-11168955.9082,4478931.5394,36486,1306,Meade,12242,City of Meade - (KS),Electric Utility,623 E Carthage,Meade,Meade,Kansas,67864,natural gas,Natural Gas = 6.6 MW,Natural Gas Internal Combustion Engine,8.2,6.6,,,,,,,6.6,,,,,,"EIA-860, EIA-860M and EIA-923",202406,-100.332438,37.285176
-10876871.5981,4738789.0577,36487,1307,Minneapolis City of,21533,City of Minneapolis - (KS),Electric Utility,110 Markley Ave.,Minneapolis,Ottawa,Kansas,67467,natural gas,"Natural Gas = 6.2 MW, Petroleum = 1.8 MW",Natural Gas Internal Combustion Engine; Petroleum Liquids;,9.1,8,,,,,,,6.2,,1.8,,,,"EIA-860, EIA-860M and EIA-923",202406,-97.7086,39.1194
-11190825.958,4840065.9373,36488,1312,Oberlin (KS),13948,City of Oberlin - (KS),Electric Utility,214 South Rodehaver,Oberlin,Decatur,Kansas,67749,petroleum,Petroleum = 6 MW,Petroleum Liquids,6,6,,,,,,,,,6,,,,"EIA-860, EIA-860M and EIA-923",202406,-100.5289,39.8217
-10667486.0925,4669263.5614,36489,1313,Osage City,14199,City of Osage City - (KS),Electric Utility,5th and Main,Osage City,Osage,Kansas,66523,natural gas,Natural Gas = 10.1 MW,Natural Gas Internal Combustion Engine,11.1,10.1,,,,,,,10.1,,,,,,"EIA-860, EIA-860M and EIA-923",202406,-95.827658,38.633183
-10570906.5268,4650546.3531,36490,1314,Osawatomie City of,14203,City of Osawatomie - (KS),Electric Utility,100 11th Street,Osawatomie,Miami,Kansas,66064,petroleum,Petroleum = 5.6 MW,Petroleum Liquids,6.6,5.6,,,,,,,,,5.6,,,,"EIA-860, EIA-860M and EIA-923",202406,-94.960069,38.501719
-10986153.497,4785180.4694,36491,1315,Osborne,14214,City of Osborne - (KS),Electric Utility,North Locust St,Osborne,Osborne,Kansas,67473,petroleum,"Natural Gas = 1.4 MW, Petroleum = 3.2 MW",Natural Gas Internal Combustion Engine; Petroleum Liquids;,7.1,4.6,,,,,,,1.4,,3.2,,,,"EIA-860, EIA-860M and EIA-923",202406,-98.690296,39.441979
-10606492.3624,4666755.2017,36492,1316,Ottawa,14229,City of Ottawa - (KS),Electric Utility,P.O. Box 60,Ottawa,Franklin,Kansas,66067,natural gas,Natural Gas = 18 MW,Natural Gas Internal Combustion Engine,19.2,18,,,,,,,18,,,,,,"EIA-860, EIA-860M and EIA-923",202406,-95.279742,38.615579
-10992053.8752,4528117.6135,36493,1317,Pratt,15321,City of Pratt- (KS),Electric Utility,321 W. 10th St.,Pratt,Pratt,Kansas,67124,natural gas,"Natural Gas = 13 MW, Petroleum = 1.5 MW",Natural Gas Steam Turbine; Petroleum Liquids;,15.5,14.5,,,,,,,13,,1.5,,,,"EIA-860, EIA-860M and EIA-923",202406,-98.7433,37.6359
-11004704.6675,4706403.9369,36494,1319,Russell Downtown,16440,City of Russell - (KS),Electric Utility,823 N Elm,Russell,Russell,Kansas,67665,natural gas,"Natural Gas = 9.4 MW, Petroleum = 5 MW",Natural Gas Internal Combustion Engine; Petroleum Liquids;,15.7,14.4,,,,,,,9.4,,5,,,,"EIA-860, EIA-860M and EIA-923",202406,-98.856944,38.893333
-10664782.0307,4852135.4076,36495,1320,Sabetha Power Plant,16518,City of Sabetha - (KS),Electric Utility,304 N11th,Sabetha,Nemaha,Kansas,66534,petroleum,"Natural Gas = 4.1 MW, Petroleum = 14.6 MW",Natural Gas Internal Combustion Engine; Petroleum Liquids;,21.8,18.7,,,,,,,4.1,,14.6,,,,"EIA-860, EIA-860M and EIA-923",202406,-95.803367,39.904922
-11333446.4859,4832701.0949,36496,1321,St Francis,17872,City of St Francis - (KS),Electric Utility,621 W First St,St Francis,Cheyenne,Kansas,67756,petroleum,Petroleum = 5.1 MW,Petroleum Liquids,5.1,5.1,,,,,,,,,5.1,,,,"EIA-860, EIA-860M and EIA-923",202406,-101.810082,39.770868
-10993935.1746,4578761.8818,36497,1322,St John,17879,City of St. John - (KS),Electric Utility,424 S. Broadway,St. John,Stafford,Kansas,67576,petroleum,Petroleum = 6.8 MW,Petroleum Liquids,6.8,6.8,,,,,,,,,6.8,,,,"EIA-860, EIA-860M and EIA-923",202406,-98.7602,37.9953
-11326927.9504,4706006.1892,36498,1324,Sharon Spring,16988,City of Sharon Springs - (KS),Electric Utility,306 S. Main,Sharon Springs,Wallace,Kansas,67758,natural gas,Natural Gas = 3 MW,Natural Gas Internal Combustion Engine,3,3,,,,,,,3,,,,,,"EIA-860, EIA-860M and EIA-923",202406,-101.751525,38.890552
-10976022.3101,4573228.4702,36499,1325,Stafford,17924,City of Stafford - (KS),Electric Utility,519 S Boston,Stafford,Stafford,Kansas,67578,petroleum,Petroleum = 2.5 MW,Petroleum Liquids,2.5,2.5,,,,,,,,,2.5,,,,"EIA-860, EIA-860M and EIA-923",202406,-98.599286,37.956117
-10932364.3643,4609743.6052,36500,1326,Sterling,18086,City of Sterling - (KS),Electric Utility,333 North Broadway,Sterling,Rice,Kansas,67579,petroleum,Petroleum = 8.3 MW,Petroleum Liquids,10.3,8.3,,,,,,,,,8.3,,,,"EIA-860, EIA-860M and EIA-923",202406,-98.2071,38.2143
-11051568.6146,4784346.0421,36501,1327,Stockton,18137,City of Stockton - (KS),Electric Utility,109 Main,Stockton,Rooks,Kansas,67669,natural gas,"Natural Gas = 4.5 MW, Petroleum = 2.8 MW",Natural Gas Internal Combustion Engine; Petroleum Liquids;,8.6,7.3,,,,,,,4.5,,2.8,,,,"EIA-860, EIA-860M and EIA-923",202406,-99.27793,39.43619
-10721024.311,4750245.5631,36502,1328,Wamego,20069,City of Wamego - (KS),Electric Utility,1001 Third Street,Wamego,Pottawatomie,Kansas,66547,natural gas,Natural Gas = 15.2 MW,Natural Gas Internal Combustion Engine,15.2,15.2,,,,,,,15.2,,,,,,"EIA-860, EIA-860M and EIA-923",202406,-96.3086,39.1992
-10795708.5574,4826870.6874,36503,1329,Washington,20141,City of Washington - (KS),Electric Utility,1001 Park Road,Washington,Washington,Kansas,66968,natural gas,"Natural Gas = 7.8 MW, Petroleum = 2.3 MW",Natural Gas Internal Combustion Engine; Petroleum Liquids;,11.4,10.1,,,,,,,7.8,,2.3,,,,"EIA-860, EIA-860M and EIA-923",202406,-96.9795,39.7306
-10843152.9244,4475601.5626,36504,1330,Wellington 1,20315,City of Wellington - (KS),Electric Utility,520 South Olive St,Wellington,Sumner,Kansas,67152,natural gas,"Natural Gas = 19.5 MW, Petroleum = 4 MW",Natural Gas Steam Turbine; Petroleum Liquids;,24,23.5,,,,,,,19.5,,4,,,,"EIA-860, EIA-860M and EIA-923",202406,-97.4057,37.261372
-10799215.1213,4471969.5015,36505,1332,West 14th Street,20813,City of Winfield - (KS),Electric Utility,West 14 @ Fairgrounds,Winfield,Cowley,Kansas,67156,natural gas,Natural Gas = 11.1 MW,Natural Gas Fired Combustion Turbine,11,11.1,,,,,,,11.1,,,,,,"EIA-860, EIA-860M and EIA-923",202406,-97.011,37.2354
-11231646.8153,4575231.0481,36506,1336,Garden City,18315,Sunflower Electric Power Corp,Electric Utility,2075 W Saint John  Street,Garden City,Finney,Kansas,67846,natural gas,Natural Gas = 221 MW,Natural Gas Fired Combustion Turbine; Natural Gas Steam Turbine;,256.3,221,,,,,,,221,,,,,,"EIA-860, EIA-860M and EIA-923",202406,-100.8956,37.9703
-9196949.1626,4603568.1421,36507,1353,Big Sandy,22053,Kentucky Power Co,Electric Utility,23000 Hwy 23,Louisa,Lawrence,Kentucky,41230,natural gas,Natural Gas = 260 MW,Natural Gas Steam Turbine,280.5,260,,,,,,,260,,,,,,"EIA-860, EIA-860M and EIA-923",202406,-82.6176,38.1707
-9430160.1562,4549564.1265,36509,1355,E W Brown,10171,Kentucky Utilities Co,Electric Utility,815 Dix Dam Rd,Harrodsburg,Mercer,Kentucky,40330,natural gas,"Coal = 412 MW, Natural Gas = 906 MW, Solar = 10 MW",Conventional Steam Coal; Natural Gas Fired Combustion Turbine; Solar Photovoltaic,1457.6,1328,,,412,,,,906,,,10,,,"EIA-860, EIA-860M and EIA-923",202406,-84.71257,37.78831
-9466052.8996,4685881.3997,36510,1356,Ghent,10171,Kentucky Utilities Co,Electric Utility,9485 US Hwy 42 East,Ghent,Carroll,Kentucky,41045,coal,Coal = 1919 MW,Conventional Steam Coal,2225.9,1919,,,1919,,,,,,,,,,"EIA-860, EIA-860M and EIA-923",202406,-85.035,38.7497
-9408656.5702,4590648.45,36511,1358,Haefling,10171,Kentucky Utilities Co,Electric Utility,1555 Baumann Dr.,Lexington,Fayette,Kentucky,40511,natural gas,Natural Gas = 24 MW,Natural Gas Fired Combustion Turbine,41.4,24,,,,,,,24,,,,,,"EIA-860, EIA-860M and EIA-923",202406,-84.5194,38.0794
-9561142.0086,4605324.0903,36513,1363,Cane Run,11249,Louisville Gas & Electric Co,Electric Utility,5252 Cane Run Road,Louisville,Jefferson,Kentucky,40216,natural gas,Natural Gas = 691 MW,Natural Gas Fired Combined Cycle,807,691,,,,,,,691,,,,,,"EIA-860, EIA-860M and EIA-923",202406,-85.8892,38.1831
-9563490.8499,4586844.9591,36514,1364,Mill Creek (KY),11249,Louisville Gas & Electric Co,Electric Utility,14660 Dixie Highway,Louisville,Jefferson,Kentucky,40272,coal,Coal = 1465 MW,Conventional Steam Coal,1717.2,1465,,,1465,,,,,,,,,,"EIA-860, EIA-860M and EIA-923",202406,-85.9103,38.0525
-9555854.7781,4611060.1935,36516,1366,Paddys Run,11249,Louisville Gas & Electric Co,Electric Utility,4512 Bells Lane,Louisville,Jefferson,Kentucky,40211,natural gas,Natural Gas = 170 MW,Natural Gas Fired Combustion Turbine,210.6,170,,,,,,,170,,,,,,"EIA-860, EIA-860M and EIA-923",202406,-85.841704,38.223592
-9377364.6613,4608411.8853,36518,1376,Paris (KY),14459,City of Paris - (KY),Electric Utility,702 Scott Avenue,Paris,Bourbon,Kentucky,40361,petroleum,Petroleum = 11.9 MW,Petroleum Liquids,11.5,11.9,,,,,,,,,11.9,,,,"EIA-860, EIA-860M and EIA-923",202406,-84.2383,38.2049
-9682380.0661,4475521.5576,36520,1378,Paradise,18642,Tennessee Valley Authority,Electric Utility,5562 Rockport Paradise Road,Drakesboro,Muhlenberg,Kentucky,42337,natural gas,Natural Gas = 1763 MW,Natural Gas Fired Combined Cycle; Natural Gas Fired Combustion Turbine;,1853.6,1763,,,,,,,1763,,,,,,"EIA-860, EIA-860M and EIA-923",202406,-86.9783,37.2608
-9882387.7952,4460272.9576,36521,1379,Shawnee,18642,Tennessee Valley Authority,Electric Utility,7900 Metropolis Lake Rd.,West Paducah,McCracken,Kentucky,42086,coal,Coal = 1206 MW,Conventional Steam Coal,1575,1206,,,1206,,,,,,,,,,"EIA-860, EIA-860M and EIA-923",202406,-88.775,37.1517
-9740666.9514,4529551.54,36523,1383,Robert A Reid,1692,Big Rivers Electric Corp,Electric Utility,9000 Highway 2096,Robards,Webster,Kentucky,42452,natural gas,Natural Gas = 58 MW,Natural Gas Fired Combustion Turbine,98.8,58,,,,,,,58,,,,,,"EIA-860, EIA-860M and EIA-923",202406,-87.5019,37.6461
-9416727.2332,4438841.9551,36524,1384,Cooper,5580,"East Kentucky Power Coop, Inc",Electric Utility,670 Cooper Power Plant Rd.,Somerset,Pulaski,Kentucky,42501,coal,Coal = 341 MW,Conventional Steam Coal,344,341,,,341,,,,,,,,,,"EIA-860, EIA-860M and EIA-923",202406,-84.5919,36.9981
-10150823.6153,3566975.7635,36525,1391,Louisiana 1,11241,Entergy Louisiana LLC,Industrial CHP,Gulf States Road,Baton Rouge,East Baton Rouge,Louisiana,70821,natural gas,"Natural Gas = 254.4 MW, Other = 128 MW",Natural Gas Fired Combustion Turbine; Other Gases;,450.9,382.4,,,,,,,254.4,,,,,128,"EIA-860, EIA-860M and EIA-923",202406,-91.1864,30.4922
-10150823.6153,3566975.7635,36526,1392,Louisiana 2,11241,Entergy Louisiana LLC,Electric Utility,Gulf States Road,Baton Rouge,East Baton Rouge,Louisiana,70821,natural gas,Natural Gas = 138 MW,Natural Gas Steam Turbine,175,138,,,,,,,138,,,,,,"EIA-860, EIA-860M and EIA-923",202406,-91.1864,30.4922
